{
"type": "FeatureCollection",
"name": "E:\\Junaid\\FRANCE\\REMAINING\\France.geojson",
"crs": { "type": "name", "properties": { "name": "urn:ogc:def:crs:OGC:1.3:CRS84" } },
"features": [
{ "type": "Feature", "properties": { "NAME": "Boutique \/ Concept store", "Category": "FRENCH", "Address": "BOUTIQUE ELLES,12 Place Fénelon Pinson, Montauban de Bretagne, 35360", "INDUSTRY": "BOUTIQUE ELLES", "CUST_ACCT": "354201", "PHONE_DIR": "299062499", "ZIP_CODE": "35360", "CITY": "MONTAUBAN DE BRETAGNE", "E_MAIL": "N\/A", "MEASURE": -999999 }, "geometry": { "type": "Point", "coordinates": [ -2.047624, 48.2010297 ] } },
{ "type": "Feature", "properties": { "NAME": "Boutique \/ Concept store", "Category": "FRENCH", "Address": "BEAUTÉ REBELLE,39 Rue de Chaumont, Sanry sur Nied, 57530", "INDUSTRY": "BEAUTÉ REBELLE", "CUST_ACCT": "574202", "PHONE_DIR": "624760445", "ZIP_CODE": "57530", "CITY": "SANRY SUR NIED", "E_MAIL": "N\/A", "MEASURE": -999999 }, "geometry": { "type": "Point", "coordinates": [ 6.21581, 49.2263848 ] } },
{ "type": "Feature", "properties": { "NAME": "Cosmetic", "Category": "FRENCH", "Address": "ANKORSTORE 75 PARIS,101 Rue de Sèvres, Paris, 75006", "INDUSTRY": "ANKORSTORE 75 PARIS", "CUST_ACCT": "N\/A", "PHONE_DIR": "N\/A", "ZIP_CODE": "N\/A", "CITY": "N\/A", "E_MAIL": "N\/A", "MEASURE": -999999 }, "geometry": { "type": "Point", "coordinates": [ 2.3298335, 48.8723646 ] } },
{ "type": "Feature", "properties": { "NAME": "Boutique \/ Concept store", "Category": "FRENCH", "Address": "CITADINES 75 PARIS,4 Rue des Innocents, Paris, 75001", "INDUSTRY": "CITADINES 75 PARIS", "CUST_ACCT": "750065", "PHONE_DIR": "01 40 30 20 45", "ZIP_CODE": "75001", "CITY": "PARIS", "E_MAIL": "N\/A", "MEASURE": -999999 }, "geometry": { "type": "Point", "coordinates": [ 2.3469937, 48.8607013 ] } },
{ "type": "Feature", "properties": { "NAME": "Grossiste \/ Distributeur", "Category": "INTERNATIONAL", "Address": "FAIRE WHOLESALE B.V GRAVENHAGE,B.V Wilhelmina van Pruisenweg 35, S-Gravenhage, 2539", "INDUSTRY": "FAIRE WHOLESALE B.V GRAVENHAGE", "CUST_ACCT": "PB0001", "PHONE_DIR": "N\/A", "ZIP_CODE": "2539", "CITY": "S-GRAVENHAGE", "E_MAIL": "N\/A", "MEASURE": -999999 }, "geometry": { "type": "Point", "coordinates": [ 4.3407928, 52.0794586 ] } },
{ "type": "Feature", "properties": { "NAME": "Hôtellerie \/ Spa", "Category": "FRENCH", "Address": "HOTEL SAINT JACQUES 75 PARIS,35 Rue des Écoles, Paris, 75005", "INDUSTRY": "HOTEL SAINT JACQUES 75 PARIS", "CUST_ACCT": "750067", "PHONE_DIR": "01 44 07 45 45", "ZIP_CODE": "75005", "CITY": "PARIS", "E_MAIL": "N\/A", "MEASURE": -999999 }, "geometry": { "type": "Point", "coordinates": [ 2.3475174, 48.8487731 ] } },
{ "type": "Feature", "properties": { "NAME": "Boutique \/ Concept store", "Category": "FRENCH", "Address": "MADEMOISELLE C,50 Avenue des Champs Élysées, Paris, 75008", "INDUSTRY": "MADEMOISELLE C", "CUST_ACCT": "340037", "PHONE_DIR": "N\/A", "ZIP_CODE": "75008", "CITY": "PARIS", "E_MAIL": "N\/A", "MEASURE": -999999 }, "geometry": { "type": "Point", "coordinates": [ 2.3044092, 48.8716253 ] } },
{ "type": "Feature", "properties": { "NAME": "Boutique \/ Concept store", "Category": "FRENCH", "Address": "IDEES EN KIT 57 WOIPPY,5 Rue de l'Église, Woippy, 57140", "INDUSTRY": "IDEES EN KIT 57 WOIPPY", "CUST_ACCT": "570024", "PHONE_DIR": "06 43 45 58 64", "ZIP_CODE": "57140", "CITY": "WOIPPY", "E_MAIL": "N\/A", "MEASURE": -999999 }, "geometry": { "type": "Point", "coordinates": [ 6.1478985, 49.1503298 ] } },
{ "type": "Feature", "properties": { "NAME": "Box \/ Coffrets", "Category": "FRENCH", "Address": "O LES BOX 06 CANNES,245 Avenue Francis Tonner, Cannes La Bocca, 06150", "INDUSTRY": "O LES BOX 06 CANNES", "CUST_ACCT": "060080", "PHONE_DIR": "06 95 01 48 50", "ZIP_CODE": "06150", "CITY": "CANNES LA BOCCA", "E_MAIL": "N\/A", "MEASURE": -999999 }, "geometry": { "type": "Point", "coordinates": [ 6.959184, 43.554029 ] } },
{ "type": "Feature", "properties": { "NAME": "Boutique \/ Concept store", "Category": "FRENCH", "Address": "WO MUM 69 LYON,E - Logik, Genay, 69730", "INDUSTRY": "WO MUM 69 LYON", "CUST_ACCT": "690046", "PHONE_DIR": "06 88 74 87 74", "ZIP_CODE": "69730", "CITY": "GENAY", "E_MAIL": "N\/A", "MEASURE": -999999 }, "geometry": { "type": "Point", "coordinates": [ 4.8223808, 45.889188 ] } },
{ "type": "Feature", "properties": { "NAME": "Boutique \/ Concept store", "Category": "FRENCH", "Address": "LILY N COCO 13 MARSEILLE,3 Rue Four du Chapitre, Marseille, 13002", "INDUSTRY": "LILY N COCO 13 MARSEILLE", "CUST_ACCT": "130051", "PHONE_DIR": "07 83 18 88 86", "ZIP_CODE": "13002", "CITY": "MARSEILLE", "E_MAIL": "N\/A", "MEASURE": -999999 }, "geometry": { "type": "Point", "coordinates": [ 5.3655457, 43.2987303 ] } },
{ "type": "Feature", "properties": { "NAME": "Boutique \/ Concept store", "Category": "FRENCH", "Address": "ETXEAN EGINA,Maison Burugorrienia, St Etienne de Baigorry, 64430", "INDUSTRY": "ETXEAN EGINA", "CUST_ACCT": "640022", "PHONE_DIR": "N\/A", "ZIP_CODE": "64430", "CITY": "ST ETIENNE DE BAIGORRY", "E_MAIL": "N\/A", "MEASURE": -999999 }, "geometry": { "type": "Point", "coordinates": [ -1.3397823, 43.1795577 ] } },
{ "type": "Feature", "properties": { "NAME": "Boutique \/ Concept store", "Category": "INTERNATIONAL", "Address": "SOFIANE CANADA,4456 Rue Wellington, Verdun, Quebec, H4G1W5", "INDUSTRY": "SOFIANE CANADA", "CUST_ACCT": "CA0001", "PHONE_DIR": "N\/A", "ZIP_CODE": "H4G1W5", "CITY": "VERDUN QUEBEC", "E_MAIL": "N\/A", "MEASURE": -999999 }, "geometry": { "type": "Point", "coordinates": [ -73.5669414, 45.459510400000013 ] } },
{ "type": "Feature", "properties": { "NAME": "Boutique \/ Concept store", "Category": "FRENCH", "Address": "BEAUTYCOM 75 PARIS,10 Rue du Faubourg Montmartre, Paris, 75009", "INDUSTRY": "BEAUTYCOM 75 PARIS", "CUST_ACCT": "750074", "PHONE_DIR": "N\/A", "ZIP_CODE": "75009", "CITY": "PARIS", "E_MAIL": "N\/A", "MEASURE": -999999 }, "geometry": { "type": "Point", "coordinates": [ 2.3430467, 48.8734079 ] } },
{ "type": "Feature", "properties": { "NAME": "Bio \/ Nature \/ Épicerie", "Category": "FRENCH", "Address": "BREBION JULIE 62 HENIN BEAUMONT,114 Boulevard Gabriel Péri, Hénin-Beaumont, 62110", "INDUSTRY": "BREBION JULIE 62 HENIN BEAUMONT", "CUST_ACCT": "620050", "PHONE_DIR": "N\/A", "ZIP_CODE": "62110", "CITY": "HENIN BEAUMONT", "E_MAIL": "N\/A", "MEASURE": -999999 }, "geometry": { "type": "Point", "coordinates": [ 2.9447056, 50.417757599999987 ] } },
{ "type": "Feature", "properties": { "NAME": "Beauté \/ Cosmétique \/ Bien-être", "Category": "INTERNATIONAL", "Address": "PASSION BEAUTE 97 LE PORT,36 Rue René Michel, Le Port, 97420", "INDUSTRY": "PASSION BEAUTE 97 LE PORT", "CUST_ACCT": "970081", "PHONE_DIR": "0692214401", "ZIP_CODE": "97420", "CITY": "LE PORT", "E_MAIL": "N\/A", "MEASURE": -999999 }, "geometry": { "type": "Point", "coordinates": [ 55.2932022, -20.937681 ] } },
{ "type": "Feature", "properties": { "NAME": "Boutique \/ Concept store", "Category": "FRENCH", "Address": "KUBE 92 MONTROUGE,20 Rue Perier, Montrouge, 92120", "INDUSTRY": "KUBE 92 MONTROUGE", "CUST_ACCT": "920032", "PHONE_DIR": "0630640425", "ZIP_CODE": "92120", "CITY": "MONTROUGE", "E_MAIL": "N\/A", "MEASURE": -999999 }, "geometry": { "type": "Point", "coordinates": [ 2.3178689, 48.8137816 ] } },
{ "type": "Feature", "properties": { "NAME": "Boutique \/ Concept store", "Category": "FRENCH", "Address": "1 bis Rue de la Roche du Maine, 53200 Loigne, France", "INDUSTRY": "VICKY MIGNON", "CUST_ACCT": "530006", "PHONE_DIR": "06 67 10 30 09", "ZIP_CODE": "53200", "CITY": "LOIGNE", "E_MAIL": "N\/A", "MEASURE": -999999 }, "geometry": { "type": "Point", "coordinates": [ -0.7475962, 47.8728888 ] } },
{ "type": "Feature", "properties": { "NAME": "Boutique \/ Concept store", "Category": "FRENCH", "Address": "2 Rue des Hauts de Fresnay, 28300 Leves, France", "INDUSTRY": "MELLE CHAILLOLLEAU FLORENCE", "CUST_ACCT": "280014", "PHONE_DIR": "N\/A", "ZIP_CODE": "28300", "CITY": "LEVES", "E_MAIL": "N\/A", "MEASURE": -999999 }, "geometry": { "type": "Point", "coordinates": [ 1.468136, 48.4739012 ] } },
{ "type": "Feature", "properties": { "NAME": "Boutique \/ Concept store", "Category": "FRENCH", "Address": "LE SALON DE VALERIE,21 Impasse Fontan, Bérat, 31370", "INDUSTRY": "LE SALON DE VALERIE", "CUST_ACCT": "310019", "PHONE_DIR": "05.61.91.95.18", "ZIP_CODE": "31370", "CITY": "BERAT", "E_MAIL": "N\/A", "MEASURE": -999999 }, "geometry": { "type": "Point", "coordinates": [ 1.1817, 43.381546 ] } },
{ "type": "Feature", "properties": { "NAME": "Boutique \/ Concept store", "Category": "FRENCH", "Address": "MME ANAIS DOUCET,27 Rue de la Poussinière, Bazoches les Gallerandes, 45480", "INDUSTRY": "MME ANAIS DOUCET", "CUST_ACCT": "450022", "PHONE_DIR": "0671476459", "ZIP_CODE": "45480", "CITY": "BAZOCHES LES GALLERANDES", "E_MAIL": "N\/A", "MEASURE": -999999 }, "geometry": { "type": "Point", "coordinates": [ 2.0494023, 48.1579994 ] } },
{ "type": "Feature", "properties": { "NAME": "Boutique \/ Concept store", "Category": "INTERNATIONAL", "Address": "MEDIBLOUX SPRL 5030 GEMBLOUX,301 Chaussée de Namur, Gembloux, 5030", "INDUSTRY": "MEDIBLOUX SPRL 5030 GEMBLOUX", "CUST_ACCT": "BEL0100", "PHONE_DIR": "32 81 34 07 42", "ZIP_CODE": "5030", "CITY": "GEMBLOUX", "E_MAIL": "N\/A", "MEASURE": -999999 }, "geometry": { "type": "Point", "coordinates": [ 4.7278049, 50.5414267 ] } },
{ "type": "Feature", "properties": { "NAME": "Boutique \/ Concept store", "Category": "FRENCH", "Address": "BUGEAUD CHARLINE 06 ANTIBES,6 Rue Saint Marguerite, Antibes, 06160", "INDUSTRY": "BUGEAUD CHARLINE 06 ANTIBES", "CUST_ACCT": "060083", "PHONE_DIR": "06 69 29 92 96", "ZIP_CODE": "06160", "CITY": "ANTIBES", "E_MAIL": "N\/A", "MEASURE": -999999 }, "geometry": { "type": "Point", "coordinates": [ 7.1255079, 43.5809942 ] } },
{ "type": "Feature", "properties": { "NAME": "Boutique \/ Concept store", "Category": "INTERNATIONAL", "Address": "ASSOUMA ABDALLAH AREF, Missbenedj, Djibouti, Djibouti", "INDUSTRY": "ASSOUMA ABDALLAH AREF", "CUST_ACCT": "DJ0001", "PHONE_DIR": "06 29 64 48 09", "ZIP_CODE": "490", "CITY": "DJIBOUTI", "E_MAIL": "N\/A", "MEASURE": -999999 }, "geometry": { "type": "Point", "coordinates": [ 43.148222, 11.5975014 ] } },
{ "type": "Feature", "properties": { "NAME": "Beauté \/ Cosmétique \/ Bien-être", "Category": "FRENCH", "Address": "GRAINS DE BEAUTE 02 CHAUNY,15 Place du Marché Couvé, Chauny, 02300", "INDUSTRY": "GRAINS DE BEAUTE 02 CHAUNY", "CUST_ACCT": "020013", "PHONE_DIR": "09 82 68 97 10", "ZIP_CODE": "02300", "CITY": "CHAUNY", "E_MAIL": "N\/A", "MEASURE": -999999 }, "geometry": { "type": "Point", "coordinates": [ 3.2193667, 49.6153303 ] } },
{ "type": "Feature", "properties": { "NAME": "Boutique \/ Concept store", "Category": "FRENCH", "Address": "CAPSULE 61,17 Place Henri IV, Argentan, 61200", "INDUSTRY": "CAPSULE 61", "CUST_ACCT": "610020", "PHONE_DIR": "N\/A", "ZIP_CODE": "61200", "CITY": "ARGENTAN", "E_MAIL": "N\/A", "MEASURE": -999999 }, "geometry": { "type": "Point", "coordinates": [ -0.0207117, 48.744368400000013 ] } },
{ "type": "Feature", "properties": { "NAME": "Boutique \/ Concept store", "Category": "FRENCH", "Address": "AINSI SOIT ZEN,1 Rue Baude, Le Hérie la Vieville, 02120", "INDUSTRY": "AINSI SOIT ZEN", "CUST_ACCT": "020014", "PHONE_DIR": "N\/A", "ZIP_CODE": "02120", "CITY": "LE HERIE LA VIEVILLE", "E_MAIL": "N\/A", "MEASURE": -999999 }, "geometry": { "type": "Point", "coordinates": [ 3.6473308, 49.8218137 ] } },
{ "type": "Feature", "properties": { "NAME": "Bio \/ Nature \/ Épicerie", "Category": "FRENCH", "Address": "VERTU ET BIEN ETRE AU NATUREL,5 bis Rue du Colonel Mioche, Billom, 63160", "INDUSTRY": "VERTU ET BIEN ETRE AU NATUREL", "CUST_ACCT": "630024", "PHONE_DIR": "07 69 01 58 16", "ZIP_CODE": "63160", "CITY": "BILLOM", "E_MAIL": "N\/A", "MEASURE": -999999 }, "geometry": { "type": "Point", "coordinates": [ 3.3405071, 45.7227064 ] } },
{ "type": "Feature", "properties": { "NAME": "Boutique \/ Concept store", "Category": "FRENCH", "Address": "EXAGONE DIFFUSION,Chemin de l’Abreuvoir, Boran sur Oise, 60280", "INDUSTRY": "EXAGONE DIFFUSION", "CUST_ACCT": "600034", "PHONE_DIR": "06 32 91 42 50", "ZIP_CODE": "60280", "CITY": "BORAN SUR OISE", "E_MAIL": "N\/A", "MEASURE": -999999 }, "geometry": { "type": "Point", "coordinates": [ 2.3616108, 49.1629891 ] } },
{ "type": "Feature", "properties": { "NAME": "Boutique \/ Concept store", "Category": "FRENCH", "Address": "BELLE ET REBELLE,30 Allée du Pré Mallard, Chanteloup en Brie, 77600", "INDUSTRY": "BELLE ET REBELLE", "CUST_ACCT": "770051", "PHONE_DIR": "0660441133", "ZIP_CODE": "77600", "CITY": "CHANTELOUP EN BRIE", "E_MAIL": "N\/A", "MEASURE": -999999 }, "geometry": { "type": "Point", "coordinates": [ 2.7359522, 48.8615471 ] } },
{ "type": "Feature", "properties": { "NAME": "Boutique \/ Concept store", "Category": "FRENCH", "Address": "INSTANT DE DETENTE,38 Place de l’Hôtel de Ville, Libercourt, 62820", "INDUSTRY": "INSTANT DE DETENTE", "CUST_ACCT": "620051", "PHONE_DIR": "N\/A", "ZIP_CODE": "62820", "CITY": "LIBERCOURT", "E_MAIL": "N\/A", "MEASURE": -999999 }, "geometry": { "type": "Point", "coordinates": [ 3.0106472, 50.4796501 ] } },
{ "type": "Feature", "properties": { "NAME": "Pharmacie \/ Parapharmacie", "Category": "INTERNATIONAL", "Address": "PHARMACIE STE THERESE,30 Rue Karl Marx, La Possession, 97419", "INDUSTRY": "PHARMACIE STE THERESE", "CUST_ACCT": "970083", "PHONE_DIR": "262448137", "ZIP_CODE": "97419", "CITY": "LA POSSESSION", "E_MAIL": "N\/A", "MEASURE": -999999 }, "geometry": { "type": "Point", "coordinates": [ 55.3393134, -20.9546719 ] } },
{ "type": "Feature", "properties": { "NAME": "Beauté \/ Cosmétique \/ Bien-être", "Category": "FRENCH", "Address": "LRCA LT BEAUTE 69,336 Rue de la Fée des Eaux, Vernaison, 69390", "INDUSTRY": "LRCA LT BEAUTE 69", "CUST_ACCT": "690047", "PHONE_DIR": "07 68 62 10 71", "ZIP_CODE": "69390", "CITY": "VERNAISON", "E_MAIL": "N\/A", "MEASURE": -999999 }, "geometry": { "type": "Point", "coordinates": [ 4.7980157, 45.6521763 ] } },
{ "type": "Feature", "properties": { "NAME": "Beauté \/ Cosmétique \/ Bien-être", "Category": "FRENCH", "Address": "MELODIE PARFUM SAS,90 Chemin du Trièves, Bizonnes, 38690", "INDUSTRY": "MELODIE PARFUM SAS", "CUST_ACCT": "380043", "PHONE_DIR": "N\/A", "ZIP_CODE": "38690", "CITY": "BIZONNES", "E_MAIL": "N\/A", "MEASURE": -999999 }, "geometry": { "type": "Point", "coordinates": [ 5.3759691, 45.4540218 ] } },
{ "type": "Feature", "properties": { "NAME": "Boutique \/ Concept store", "Category": "FRENCH", "Address": "H'AR-I SAS,20 Route de Courchamp, Rupereux, 77560", "INDUSTRY": "H'AR-I SAS", "CUST_ACCT": "770052", "PHONE_DIR": "06 50 36 60 21", "ZIP_CODE": "77560", "CITY": "RUPEREUX", "E_MAIL": "N\/A", "MEASURE": -999999 }, "geometry": { "type": "Point", "coordinates": [ 3.3301498, 48.635751799999987 ] } },
{ "type": "Feature", "properties": { "NAME": "Boutique \/ Concept store", "Category": "FRENCH", "Address": "GOUVEIA - REVEL JUSTINE,1 Rue Balore, Alès, 30100", "INDUSTRY": "GOUVEIA - REVEL JUSTINE", "CUST_ACCT": "300019", "PHONE_DIR": "N\/A", "ZIP_CODE": "30100", "CITY": "ALES", "E_MAIL": "N\/A", "MEASURE": -999999 }, "geometry": { "type": "Point", "coordinates": [ 4.0782317, 44.1213127 ] } },
{ "type": "Feature", "properties": { "NAME": "Boutique \/ Concept store", "Category": "FRENCH", "Address": "DIVERS KB DISTRIBUTEUR FRANCE,331 Rue de la Rotonde, Riorges, 42153", "INDUSTRY": "DIVERS KB DISTRIBUTEUR FRANCE", "CUST_ACCT": "DIVKB", "PHONE_DIR": "N\/A", "ZIP_CODE": "42153", "CITY": "RIORGES", "E_MAIL": "N\/A", "MEASURE": -999999 }, "geometry": { "type": "Point", "coordinates": [ 4.0472388, 46.054283 ] } },
{ "type": "Feature", "properties": { "NAME": "Boutique \/ Concept store", "Category": "FRENCH", "Address": "MINIS POTELÉS,131 Impasse des Pyrénées, Villeneuve de Marsan, 40190", "INDUSTRY": "MINIS POTELÉS", "CUST_ACCT": "404201", "PHONE_DIR": "631221923", "ZIP_CODE": "40190", "CITY": "VILLENEUVE DE MARSAN", "E_MAIL": "N\/A", "MEASURE": -999999 }, "geometry": { "type": "Point", "coordinates": [ -0.3043482, 43.8919602 ] } },
{ "type": "Feature", "properties": { "NAME": "Boutique \/ Concept store", "Category": "FRENCH", "Address": "MYL ET UNE DOUCEUR,9 Allée des Roses, Tigery, 91250", "INDUSTRY": "MYL ET UNE DOUCEUR", "CUST_ACCT": "914201", "PHONE_DIR": "681582441", "ZIP_CODE": "91250", "CITY": "TIGERY", "E_MAIL": "N\/A", "MEASURE": -999999 }, "geometry": { "type": "Point", "coordinates": [ 2.5395595, 48.6413342 ] } },
{ "type": "Feature", "properties": { "NAME": "Boutique \/ Concept store", "Category": "FRENCH", "Address": "12 bis Boulevard Francois Mothre, 10260 Saint-Parres-les-Vaudes, France", "INDUSTRY": "DOUCE EMOTION", "CUST_ACCT": "104201", "PHONE_DIR": "0772384183", "ZIP_CODE": "10260", "CITY": "ST PARRES LES VAUDES", "E_MAIL": "N\/A", "MEASURE": -999999 }, "geometry": { "type": "Point", "coordinates": [ 4.2174299, 48.1705869 ] } },
{ "type": "Feature", "properties": { "NAME": "Boutique \/ Concept store", "Category": "FRENCH", "Address": "BEKTAS,14 Rue de l'Essartery, Roche la Moliere, 42230", "INDUSTRY": "BEKTAS", "CUST_ACCT": "424201", "PHONE_DIR": "N\/A", "ZIP_CODE": "42230", "CITY": "ROCHE LA MOLIERE", "E_MAIL": "N\/A", "MEASURE": -999999 }, "geometry": { "type": "Point", "coordinates": [ 4.3355144, 45.4330367 ] } },
{ "type": "Feature", "properties": { "NAME": "Boutique \/ Concept store", "Category": "FRENCH", "Address": "AYAJEN BOUTIQUE,8 Rue Henri Rol Tanguy, Grigny, 91350", "INDUSTRY": "AYAJEN BOUTIQUE", "CUST_ACCT": "914202", "PHONE_DIR": "951413901", "ZIP_CODE": "91350", "CITY": "GRIGNY", "E_MAIL": "N\/A", "MEASURE": -999999 }, "geometry": { "type": "Point", "coordinates": [ 2.3873475, 48.653464 ] } },
{ "type": "Feature", "properties": { "NAME": "Boutique \/ Concept store", "Category": "FRENCH", "Address": "LE NENUPHAR BLANC,4 Rue de Loustalot Impasse Barreau, Gradignan, 33170", "INDUSTRY": "LE NENUPHAR BLANC", "CUST_ACCT": "334201", "PHONE_DIR": "661518304", "ZIP_CODE": "33170", "CITY": "GRADIGNAN", "E_MAIL": "N\/A", "MEASURE": -999999 }, "geometry": { "type": "Point", "coordinates": [ -0.6146683, 44.7733861 ] } },
{ "type": "Feature", "properties": { "NAME": "Beauté \/ Cosmétique \/ Bien-être", "Category": "FRENCH", "Address": "ESSENTI'HEL BEAUTE,360 Rue des Peupliers, Ste Marie Kerque, 62370", "INDUSTRY": "ESSENTI'HEL BEAUTE", "CUST_ACCT": "624209", "PHONE_DIR": "0686207978", "ZIP_CODE": "62370", "CITY": "STE MARIE KERQUE", "E_MAIL": "N\/A", "MEASURE": -999999 }, "geometry": { "type": "Point", "coordinates": [ 2.1371591, 50.9030579 ] } },
{ "type": "Feature", "properties": { "NAME": "Boutique \/ Concept store", "Category": "FRENCH", "Address": "LANDRIEAU CANZANI,13 Chemin du Luc, Carrere, 64160", "INDUSTRY": "LANDRIEAU CANZANI", "CUST_ACCT": "644201", "PHONE_DIR": "603051208", "ZIP_CODE": "64160", "CITY": "CARRERE", "E_MAIL": "N\/A", "MEASURE": -999999 }, "geometry": { "type": "Point", "coordinates": [ -0.2683613, 43.4628924 ] } },
{ "type": "Feature", "properties": { "NAME": "Boutique \/ Concept store", "Category": "FRENCH", "Address": "MA FLORITHERAPIE,375 Chemin du Collet Long, La Crau, 83260", "INDUSTRY": "MA FLORITHERAPIE", "CUST_ACCT": "834202", "PHONE_DIR": "06.59.69.31.82", "ZIP_CODE": "83260", "CITY": "LA CRAU", "E_MAIL": "N\/A", "MEASURE": -999999 }, "geometry": { "type": "Point", "coordinates": [ 6.085035, 43.1550699 ] } },
{ "type": "Feature", "properties": { "NAME": "Beauté \/ Cosmétique \/ Bien-être", "Category": "FRENCH", "Address": "BY KELLY BEAUTE,49 Avenue de la République, Chambray les Tours, 37170", "INDUSTRY": "BY KELLY BEAUTE", "CUST_ACCT": "370011", "PHONE_DIR": "N\/A", "ZIP_CODE": "37170", "CITY": "CHAMBRAY LES TOURS", "E_MAIL": "N\/A", "MEASURE": -999999 }, "geometry": { "type": "Point", "coordinates": [ 0.769855, 47.352789 ] } },
{ "type": "Feature", "properties": { "NAME": "Cosmetic", "Category": "INTERNATIONAL", "Address": "MARKATO HK LIMITED,20F Metro South 39 Wong Chuk, Hong Kong, HK", "INDUSTRY": "MARKATO HK LIMITED", "CUST_ACCT": "N\/A", "PHONE_DIR": "N\/A", "ZIP_CODE": "N\/A", "CITY": "N\/A", "E_MAIL": "N\/A", "MEASURE": -999999 }, "geometry": { "type": "Point", "coordinates": [ 114.1663565, 22.2488125 ] } },
{ "type": "Feature", "properties": { "NAME": "Beauté \/ Cosmétique \/ Bien-être", "Category": "FRENCH", "Address": "L'ILE DE BEAUTE,190 Avenue de Cazouls, Maraussan, 34370", "INDUSTRY": "L'ILE DE BEAUTE", "CUST_ACCT": "344201", "PHONE_DIR": "467214245", "ZIP_CODE": "34370", "CITY": "MARAUSSAN", "E_MAIL": "N\/A", "MEASURE": -999999 }, "geometry": { "type": "Point", "coordinates": [ 3.154811, 43.3682962 ] } },
{ "type": "Feature", "properties": { "NAME": "Cosmetic", "Category": "FRENCH", "Address": "ANKORSTORE SAS UE,101 Rue de Sèvres, Paris, 75006", "INDUSTRY": "ANKORSTORE SAS UE", "CUST_ACCT": "N\/A", "PHONE_DIR": "N\/A", "ZIP_CODE": "N\/A", "CITY": "N\/A", "E_MAIL": "N\/A", "MEASURE": -999999 }, "geometry": { "type": "Point", "coordinates": [ 2.3298335, 48.8723646 ] } },
{ "type": "Feature", "properties": { "NAME": "Cosmetic", "Category": "FRENCH", "Address": "ANKORSTORE SAS EXP,101 Rue de Sèvres, Paris, 75006", "INDUSTRY": "ANKORSTORE SAS EXP", "CUST_ACCT": "N\/A", "PHONE_DIR": "N\/A", "ZIP_CODE": "N\/A", "CITY": "N\/A", "E_MAIL": "N\/A", "MEASURE": -999999 }, "geometry": { "type": "Point", "coordinates": [ 2.3298335, 48.8723646 ] } },
{ "type": "Feature", "properties": { "NAME": "Cosmetic", "Category": "INTERNATIONAL", "Address": "FAIRE WHOLESALE B.V GRAVENHAGE UE,B.V Wilhelmina van Pruisenweg 35, S-Gravenhage, 2539", "INDUSTRY": "FAIRE WHOLESALE B.V GRAVENHAGE UE", "CUST_ACCT": "N\/A", "PHONE_DIR": "N\/A", "ZIP_CODE": "N\/A", "CITY": "N\/A", "E_MAIL": "N\/A", "MEASURE": -999999 }, "geometry": { "type": "Point", "coordinates": [ 4.3407928, 52.0794586 ] } },
{ "type": "Feature", "properties": { "NAME": "Cosmetic", "Category": "INTERNATIONAL", "Address": "FAIRE WHOLESALE B.V GRAVENHAGE EX,B.V Wilhelmina van Pruisenweg 35, S-Gravenhage, 2539", "INDUSTRY": "FAIRE WHOLESALE B.V GRAVENHAGE EX", "CUST_ACCT": "N\/A", "PHONE_DIR": "N\/A", "ZIP_CODE": "N\/A", "CITY": "N\/A", "E_MAIL": "N\/A", "MEASURE": -999999 }, "geometry": { "type": "Point", "coordinates": [ 4.3407928, 52.0794586 ] } },
{ "type": "Feature", "properties": { "NAME": "Beauté \/ Cosmétique \/ Bien-être", "Category": "FRENCH", "Address": "L'ESCALE BEAUTE,107 Avenue de la République, Biars sur Cère, 46130", "INDUSTRY": "L'ESCALE BEAUTE", "CUST_ACCT": "464201", "PHONE_DIR": "565107617", "ZIP_CODE": "46130", "CITY": "BIARS SUR CERE", "E_MAIL": "N\/A", "MEASURE": -999999 }, "geometry": { "type": "Point", "coordinates": [ 1.8420356, 44.921134 ] } },
{ "type": "Feature", "properties": { "NAME": "Boutique \/ Concept store", "Category": "FRENCH", "Address": "VOYAGE DES SENS,15 Avenue Jean Jaurès, St Juery, 81160", "INDUSTRY": "VOYAGE DES SENS", "CUST_ACCT": "814201", "PHONE_DIR": "05\/63\/45\/12\/20", "ZIP_CODE": "81160", "CITY": "ST JUERY", "E_MAIL": "N\/A", "MEASURE": -999999 }, "geometry": { "type": "Point", "coordinates": [ 2.2094588, 43.9483213 ] } },
{ "type": "Feature", "properties": { "NAME": "Cosmetic", "Category": "INTERNATIONAL", "Address": "FAIRE WHOLESALE BV GRAVENHAGE,B.V Wilhelmina van Pruisenweg 35, S-Gravenhage, 2539", "INDUSTRY": "FAIRE WHOLESALE BV GRAVENHAGE", "CUST_ACCT": "N\/A", "PHONE_DIR": "N\/A", "ZIP_CODE": "N\/A", "CITY": "N\/A", "E_MAIL": "N\/A", "MEASURE": -999999 }, "geometry": { "type": "Point", "coordinates": [ 4.3407928, 52.0794586 ] } },
{ "type": "Feature", "properties": { "NAME": "Bio \/ Nature \/ Épicerie", "Category": "FRENCH", "Address": "HARMONIE NATURELLE,1485 Chemin Saint Claude Bâtiment K, Antibes, 06600", "INDUSTRY": "HARMONIE NATURELLE", "CUST_ACCT": "064201", "PHONE_DIR": "0786424497", "ZIP_CODE": "06600", "CITY": "ANTIBES", "E_MAIL": "N\/A", "MEASURE": -999999 }, "geometry": { "type": "Point", "coordinates": [ 7.1005752, 43.5993257 ] } },
{ "type": "Feature", "properties": { "NAME": "Hôtellerie \/ Spa", "Category": "FRENCH", "Address": "SAS PEPITES LODGES ET SPAS,6 Chemin de Bois Rigaud, Premilhat, 03410", "INDUSTRY": "SAS PEPITES LODGES ET SPAS", "CUST_ACCT": "030023", "PHONE_DIR": "N\/A", "ZIP_CODE": "03410", "CITY": "PREMILHAT", "E_MAIL": "N\/A", "MEASURE": -999999 }, "geometry": { "type": "Point", "coordinates": [ 2.555985, 46.334245 ] } },
{ "type": "Feature", "properties": { "NAME": "Beauté \/ Cosmétique \/ Bien-être", "Category": "FRENCH", "Address": "LRZ77 COSMETIQUES,16 Rue de la Bernache, Samoreau, 77210", "INDUSTRY": "LRZ77 COSMETIQUES", "CUST_ACCT": "774201", "PHONE_DIR": "01.60.70.61.23", "ZIP_CODE": "77210", "CITY": "SAMOREAU", "E_MAIL": "N\/A", "MEASURE": -999999 }, "geometry": { "type": "Point", "coordinates": [ 2.7253632, 48.4105848 ] } },
{ "type": "Feature", "properties": { "NAME": "Bio \/ Nature \/ Épicerie", "Category": "FRENCH", "Address": "DOUCE BIOTE,493 Rue Paul Descamps, Bruay la Buissière, 62700", "INDUSTRY": "DOUCE BIOTE", "CUST_ACCT": "624210", "PHONE_DIR": "07.77.76.25.21", "ZIP_CODE": "62700", "CITY": "BRUAY LA BUISSIERE", "E_MAIL": "N\/A", "MEASURE": -999999 }, "geometry": { "type": "Point", "coordinates": [ 2.5623343, 50.4814756 ] } },
{ "type": "Feature", "properties": { "NAME": "Boutique \/ Concept store", "Category": "FRENCH", "Address": "NABUCET ELODIE,8 Grière, Prinquiau, 44260", "INDUSTRY": "NABUCET ELODIE", "CUST_ACCT": "444201", "PHONE_DIR": "02.40.06.57.40", "ZIP_CODE": "44260", "CITY": "PRINQUIAU", "E_MAIL": "N\/A", "MEASURE": -999999 }, "geometry": { "type": "Point", "coordinates": [ -2.0110296, 47.3632286 ] } },
{ "type": "Feature", "properties": { "NAME": "Boutique \/ Concept store", "Category": "FRENCH", "Address": "SANDRINE POUNIT,2 Route de la Fontaine Rizolles Bas, Auzon, 43390", "INDUSTRY": "SANDRINE POUNIT", "CUST_ACCT": "434201", "PHONE_DIR": "0629424770", "ZIP_CODE": "43390", "CITY": "AUZON", "E_MAIL": "N\/A", "MEASURE": -999999 }, "geometry": { "type": "Point", "coordinates": [ 3.3798135, 45.386897399999988 ] } },
{ "type": "Feature", "properties": { "NAME": "Boutique \/ Concept store", "Category": "FRENCH", "Address": "SÉRÉLYA-STORE,13 Rue de la Fontaine de Chalet, Massiac, 15500", "INDUSTRY": "SÉRÉLYA-STORE", "CUST_ACCT": "154201", "PHONE_DIR": "06 84 20 45 80", "ZIP_CODE": "15500", "CITY": "MASSIAC", "E_MAIL": "N\/A", "MEASURE": -999999 }, "geometry": { "type": "Point", "coordinates": [ 3.20254, 45.2746179 ] } },
{ "type": "Feature", "properties": { "NAME": "Boutique \/ Concept store", "Category": "FRENCH", "Address": "VINCENT JONATHAN,5 UE Chabot d'Allier, Montluçon, 03100", "INDUSTRY": "VINCENT JONATHAN", "CUST_ACCT": "034202", "PHONE_DIR": "0658981384", "ZIP_CODE": "03100", "CITY": "MONTLUCON", "E_MAIL": "N\/A", "MEASURE": -999999 }, "geometry": { "type": "Point", "coordinates": [ 2.5972556, 46.3451775 ] } },
{ "type": "Feature", "properties": { "NAME": "Boutique \/ Concept store", "Category": "FRENCH", "Address": "CREACIONES PRECIOSAS,18 Rue de l'Aiguille, Bages, 11100", "INDUSTRY": "CREACIONES PRECIOSAS", "CUST_ACCT": "114201", "PHONE_DIR": "637492356", "ZIP_CODE": "11100", "CITY": "BAGES", "E_MAIL": "N\/A", "MEASURE": -999999 }, "geometry": { "type": "Point", "coordinates": [ 2.9889, 43.1240872 ] } },
{ "type": "Feature", "properties": { "NAME": "Boutique \/ Concept store", "Category": "FRENCH", "Address": "SAS AUBIMIOCA,90 Impasse des Meuliers, Vic le Comte, 63270", "INDUSTRY": "SAS AUBIMIOCA", "CUST_ACCT": "634202", "PHONE_DIR": "0699395093", "ZIP_CODE": "63270", "CITY": "VIC LE COMTE", "E_MAIL": "N\/A", "MEASURE": -999999 }, "geometry": { "type": "Point", "coordinates": [ 3.2296725, 45.6452705 ] } },
{ "type": "Feature", "properties": { "NAME": "Boutique \/ Concept store", "Category": "FRENCH", "Address": "L'HARMONIE DES SENS,18 Route de la Sauvetat du Dropt, Eymet, 24500", "INDUSTRY": "L'HARMONIE DES SENS", "CUST_ACCT": "244201", "PHONE_DIR": "637056042", "ZIP_CODE": "24500", "CITY": "EYMET", "E_MAIL": "N\/A", "MEASURE": -999999 }, "geometry": { "type": "Point", "coordinates": [ 0.3968471, 44.666702099999988 ] } },
{ "type": "Feature", "properties": { "NAME": "Beauté \/ Cosmétique \/ Bien-être", "Category": "FRENCH", "Address": "PARENTHESE PARFUMEE,13 Lotissement Mane Lann Vraz, Landevant, 56690", "INDUSTRY": "PARENTHESE PARFUMEE", "CUST_ACCT": "564201", "PHONE_DIR": "686542505", "ZIP_CODE": "56690", "CITY": "LANDEVANT", "E_MAIL": "N\/A", "MEASURE": -999999 }, "geometry": { "type": "Point", "coordinates": [ -3.1112662, 47.7591175 ] } },
{ "type": "Feature", "properties": { "NAME": "Boutique \/ Concept store", "Category": "FRENCH", "Address": "BULLES DE SENTEUR,3 Lieu-dit Le Clos des Troènes, Orcet, 63670", "INDUSTRY": "BULLES DE SENTEUR", "CUST_ACCT": "634203", "PHONE_DIR": "06 52 54 29 70", "ZIP_CODE": "63670", "CITY": "ORCET", "E_MAIL": "N\/A", "MEASURE": -999999 }, "geometry": { "type": "Point", "coordinates": [ 3.175031, 45.7071382 ] } },
{ "type": "Feature", "properties": { "NAME": "Boutique \/ Concept store", "Category": "FRENCH", "Address": "AXEL FORNASIER,688 Avenue Jean Moulin, Velaux, 13880", "INDUSTRY": "AXEL FORNASIER", "CUST_ACCT": "134204", "PHONE_DIR": "N\/A", "ZIP_CODE": "13880", "CITY": "VELAUX", "E_MAIL": "N\/A", "MEASURE": -999999 }, "geometry": { "type": "Point", "coordinates": [ 5.2454376, 43.5258666 ] } },
{ "type": "Feature", "properties": { "NAME": "Beauté \/ Cosmétique \/ Bien-être", "Category": "FRENCH", "Address": "L'INSTITUT DE JOËLLE,36 Rue de Custines, Malleloy, 54670", "INDUSTRY": "L'INSTITUT DE JOËLLE", "CUST_ACCT": "544202", "PHONE_DIR": "683614329", "ZIP_CODE": "54670", "CITY": "MALLELOY", "E_MAIL": "N\/A", "MEASURE": -999999 }, "geometry": { "type": "Point", "coordinates": [ 6.1591584, 48.794551 ] } },
{ "type": "Feature", "properties": { "NAME": "Boutique \/ Concept store", "Category": "FRENCH", "Address": "Kinexya, Sylvains‑les‑Moulins, 27240, France", "INDUSTRY": "KINEXYA", "CUST_ACCT": "754201", "PHONE_DIR": "014563059", "ZIP_CODE": "27240", "CITY": "SYLVAINS LES MOULINS", "E_MAIL": "N\/A", "MEASURE": -999999 }, "geometry": { "type": "Point", "coordinates": [ 1.0970664, 48.8760579 ] } },
{ "type": "Feature", "properties": { "NAME": "Boutique \/ Concept store", "Category": "FRENCH", "Address": "La Part du Colibri, Cazal Viel, 34460 Cessenon‑sur‑Orb, France", "INDUSTRY": "LA PART DU COLIBRI", "CUST_ACCT": "344202", "PHONE_DIR": "07 61 68 85 75", "ZIP_CODE": "34460", "CITY": "CESSENON SUR ORB", "E_MAIL": "N\/A", "MEASURE": -999999 }, "geometry": { "type": "Point", "coordinates": [ 3.094112, 43.43015 ] } },
{ "type": "Feature", "properties": { "NAME": "Boutique \/ Concept store", "Category": "FRENCH", "Address": "DOUCEUR ET SOINS,22 Rue de Forges, Balleroy sur Drôme, 14490", "INDUSTRY": "DOUCEUR ET SOINS", "CUST_ACCT": "144201", "PHONE_DIR": "231927523", "ZIP_CODE": "14490", "CITY": "BALLEROY SUR DROME", "E_MAIL": "N\/A", "MEASURE": -999999 }, "geometry": { "type": "Point", "coordinates": [ -0.8396962, 49.1812643 ] } },
{ "type": "Feature", "properties": { "NAME": "Boutique \/ Concept store", "Category": "FRENCH", "Address": "EL HADDOUCHI FAOUZI,1 Avenue Montesquieu BP 10004, Orléans Cedex 2, 45060", "INDUSTRY": "EL HADDOUCHI FAOUZI", "CUST_ACCT": "454200", "PHONE_DIR": "N\/A", "ZIP_CODE": "45060", "CITY": "ORLEANS CEDEX 2", "E_MAIL": "N\/A", "MEASURE": -999999 }, "geometry": { "type": "Point", "coordinates": [ 1.9085203, 47.9032335 ] } },
{ "type": "Feature", "properties": { "NAME": "Boutique \/ Concept store", "Category": "FRENCH", "Address": "SAS RESPIRADOM,9 Place Jacques Brel, Ris Orangis, 91130", "INDUSTRY": "SAS RESPIRADOM", "CUST_ACCT": "914203", "PHONE_DIR": "N\/A", "ZIP_CODE": "91130", "CITY": "RIS ORANGIS", "E_MAIL": "N\/A", "MEASURE": -999999 }, "geometry": { "type": "Point", "coordinates": [ 2.4093506, 48.6559953 ] } },
{ "type": "Feature", "properties": { "NAME": "Boutique \/ Concept store", "Category": "INTERNATIONAL", "Address": "SCTI S.A.S.,Ornella Rosa Via Montegrappa 4, Ponte San Pietro - Bergamo, 24036", "INDUSTRY": "SCTI S.A.S.", "CUST_ACCT": "ITA0004", "PHONE_DIR": "393337119052", "ZIP_CODE": "24036", "CITY": "PONTE SAN PIETRO - BERGAMO", "E_MAIL": "N\/A", "MEASURE": -999999 }, "geometry": { "type": "Point", "coordinates": [ 9.588009, 45.6972561 ] } },
{ "type": "Feature", "properties": { "NAME": "Boutique \/ Concept store", "Category": "FRENCH", "Address": "AUX TRESORS DE NAIS,6 Boulevard Georges Clemenceau, Lorgues, 83510", "INDUSTRY": "AUX TRESORS DE NAIS", "CUST_ACCT": "834203", "PHONE_DIR": "635417927", "ZIP_CODE": "83510", "CITY": "LORGUES", "E_MAIL": "N\/A", "MEASURE": -999999 }, "geometry": { "type": "Point", "coordinates": [ 6.3621, 43.4930619 ] } },
{ "type": "Feature", "properties": { "NAME": "Beauté \/ Cosmétique \/ Bien-être", "Category": "FRENCH", "Address": "LA SAVONNIÈRE,9 Rue Haute-Vienne, Limoges, 87000", "INDUSTRY": "LA SAVONNIÈRE", "CUST_ACCT": "874201", "PHONE_DIR": "05 55 32 81 77", "ZIP_CODE": "87000", "CITY": "LIMOGES", "E_MAIL": "N\/A", "MEASURE": -999999 }, "geometry": { "type": "Point", "coordinates": [ 1.259923, 45.8278969 ] } },
{ "type": "Feature", "properties": { "NAME": "Boutique \/ Concept store", "Category": "FRENCH", "Address": "L'ATELIER DÉTENTE D'ANNABELLE,49 Imp des Hauts de la Chapelle, Manosque, 04100", "INDUSTRY": "L'ATELIER DÉTENTE D'ANNABELLE", "CUST_ACCT": "044201", "PHONE_DIR": "0624102435", "ZIP_CODE": "04100", "CITY": "MANOSQUE", "E_MAIL": "N\/A", "MEASURE": -999999 }, "geometry": { "type": "Point", "coordinates": [ 5.7956666, 43.829551599999988 ] } },
{ "type": "Feature", "properties": { "NAME": "Boutique \/ Concept store", "Category": "FRENCH", "Address": "ELODIE BOUILLAUX,88 Rue Edmonde Charles Roux, Hermanville sur Mer, 14880", "INDUSTRY": "ELODIE BOUILLAUX", "CUST_ACCT": "144202", "PHONE_DIR": "06.18.91.50.73", "ZIP_CODE": "14880", "CITY": "HERMANVILLE SUR MER", "E_MAIL": "N\/A", "MEASURE": -999999 }, "geometry": { "type": "Point", "coordinates": [ -0.3199713, 49.2855235 ] } },
{ "type": "Feature", "properties": { "NAME": "Boutique \/ Concept store", "Category": "FRENCH", "Address": "FEE DU BIEN ETRE,10 Rue Louis Aragon, Salouel, 80480", "INDUSTRY": "FEE DU BIEN ETRE", "CUST_ACCT": "804201", "PHONE_DIR": "07.83.81.29.30", "ZIP_CODE": "80480", "CITY": "SALOUEL", "E_MAIL": "N\/A", "MEASURE": -999999 }, "geometry": { "type": "Point", "coordinates": [ 2.2578186, 49.870692299999988 ] } },
{ "type": "Feature", "properties": { "NAME": "Boutique \/ Concept store", "Category": "FRENCH", "Address": "INSTINCTIVE,45 Rue de la Tourberie, Verton, 62180", "INDUSTRY": "INSTINCTIVE", "CUST_ACCT": "624211", "PHONE_DIR": "33670936596", "ZIP_CODE": "62180", "CITY": "VERTON", "E_MAIL": "N\/A", "MEASURE": -999999 }, "geometry": { "type": "Point", "coordinates": [ 1.6461215, 50.3999298 ] } },
{ "type": "Feature", "properties": { "NAME": "Boutique \/ Concept store", "Category": "FRENCH", "Address": "L'ODEUR DU BONHEUR,5 Chemin de Saint Cirgues, Meilhaud, 63320", "INDUSTRY": "L'ODEUR DU BONHEUR", "CUST_ACCT": "634204", "PHONE_DIR": "650907857", "ZIP_CODE": "63320", "CITY": "MEILHAUD", "E_MAIL": "N\/A", "MEASURE": -999999 }, "geometry": { "type": "Point", "coordinates": [ 3.160641, 45.547184 ] } },
{ "type": "Feature", "properties": { "NAME": "Boutique \/ Concept store", "Category": "FRENCH", "Address": "AVEC JOIE,73 Rue François Mermet, Tassin la Demi Lune, 69160", "INDUSTRY": "AVEC JOIE", "CUST_ACCT": "694202", "PHONE_DIR": "04 78 35 65 98", "ZIP_CODE": "69160", "CITY": "TASSIN LA DEMI LUNE", "E_MAIL": "N\/A", "MEASURE": -999999 }, "geometry": { "type": "Point", "coordinates": [ 4.762903, 45.758003900000013 ] } },
{ "type": "Feature", "properties": { "NAME": "Bio \/ Nature \/ Épicerie", "Category": "FRENCH", "Address": "OUSTAU'BIO,17 Rue St Germain, Navarrenx, 64190", "INDUSTRY": "OUSTAU'BIO", "CUST_ACCT": "644202", "PHONE_DIR": "684083917", "ZIP_CODE": "64190", "CITY": "NAVARRENX", "E_MAIL": "N\/A", "MEASURE": -999999 }, "geometry": { "type": "Point", "coordinates": [ -0.7600845, 43.3218658 ] } },
{ "type": "Feature", "properties": { "NAME": "Boutique \/ Concept store", "Category": "INTERNATIONAL", "Address": "GEMER GRUPP OÜ, Kadaka tee 3\/3, Tallinn, 10621, Estonia", "INDUSTRY": "GEMER GRUPP OU", "CUST_ACCT": "EST0002", "PHONE_DIR": "372 509 96 73", "ZIP_CODE": "10621", "CITY": "TALLINN", "E_MAIL": "N\/A", "MEASURE": -999999 }, "geometry": { "type": "Point", "coordinates": [ 24.6825596, 59.4147212 ] } },
{ "type": "Feature", "properties": { "NAME": "Boutique \/ Concept store", "Category": "FRENCH", "Address": "REV & ZEN 34 SAINT GEORGES D'ORQUES,3 Rue des Alicantes, St Georges d'Orques, 34680", "INDUSTRY": "REV & ZEN 34 SAINT GEORGES D'ORQUES", "CUST_ACCT": "340039", "PHONE_DIR": "06 09 47 45 37", "ZIP_CODE": "34680", "CITY": "ST GEORGES D ORQUES", "E_MAIL": "N\/A", "MEASURE": -999999 }, "geometry": { "type": "Point", "coordinates": [ 3.7818356, 43.6105622 ] } },
{ "type": "Feature", "properties": { "NAME": "Boutique \/ Concept store", "Category": "FRENCH", "Address": "AMAZON 45 SARAN,Pole 45, Saran, 45772", "INDUSTRY": "AMAZON 45 SARAN", "CUST_ACCT": "450021", "PHONE_DIR": "N\/A", "ZIP_CODE": "45772", "CITY": "SARAN", "E_MAIL": "N\/A", "MEASURE": -999999 }, "geometry": { "type": "Point", "coordinates": [ 1.8460173, 47.9622599 ] } },
{ "type": "Feature", "properties": { "NAME": "Boutique \/ Concept store", "Category": "INTERNATIONAL", "Address": "Lai 2, 79806 Kohila, Estonia", "INDUSTRY": "INSYSTEM BALTIC OÜ", "CUST_ACCT": "EST0001", "PHONE_DIR": "37253020891", "ZIP_CODE": "79806", "CITY": "RAPLA COUNTY", "E_MAIL": "N\/A", "MEASURE": -999999 }, "geometry": { "type": "Point", "coordinates": [ 24.7366868, 59.1791153 ] } },
{ "type": "Feature", "properties": { "NAME": "Boutique \/ Concept store", "Category": "FRENCH", "Address": "CASINO 76 SAINT VALERY EN CAUX,1 Promenade Jacuqes Couture, St Valery en Caux, 76460", "INDUSTRY": "CASINO 76 SAINT VALERY EN CAUX", "CUST_ACCT": "760047", "PHONE_DIR": "02 35 57 84 10", "ZIP_CODE": "76460", "CITY": "ST VALERY EN CAUX", "E_MAIL": "N\/A", "MEASURE": -999999 }, "geometry": { "type": "Point", "coordinates": [ 0.7164256, 49.8698675 ] } },
{ "type": "Feature", "properties": { "NAME": "Bio \/ Nature \/ Épicerie", "Category": "INTERNATIONAL", "Address": "ALCHIDA NATURE S.R.L,Str. Aleea Barajul Iezeru Nr.6A, Bucarest, Sect.3", "INDUSTRY": "ALCHIDA NATURE S.R.L", "CUST_ACCT": "ROU0001", "PHONE_DIR": "0756061263", "ZIP_CODE": "SECT.3", "CITY": "BUCAREST", "E_MAIL": "N\/A", "MEASURE": -999999 }, "geometry": { "type": "Point", "coordinates": [ 26.1704157, 44.4324765 ] } },
{ "type": "Feature", "properties": { "NAME": "Boutique \/ Concept store", "Category": "FRENCH", "Address": "L'INSTANT SOIN,44 Rue Célestin Freppaz, Seez, 73700", "INDUSTRY": "L'INSTANT SOIN", "CUST_ACCT": "730011", "PHONE_DIR": "N\/A", "ZIP_CODE": "73700", "CITY": "SEEZ", "E_MAIL": "N\/A", "MEASURE": -999999 }, "geometry": { "type": "Point", "coordinates": [ 6.7990733, 45.622988 ] } },
{ "type": "Feature", "properties": { "NAME": "Boutique \/ Concept store", "Category": "INTERNATIONAL", "Address": "UCC FACILITY 1319CT ALMERE,Ploeganker 25, Almere, 1319CT", "INDUSTRY": "UCC FACILITY 1319CT ALMERE", "CUST_ACCT": "PB0003", "PHONE_DIR": "06 41 56 68 06", "ZIP_CODE": "1319CT", "CITY": "ALMERE", "E_MAIL": "N\/A", "MEASURE": -999999 }, "geometry": { "type": "Point", "coordinates": [ 5.2168528, 52.3757139 ] } },
{ "type": "Feature", "properties": { "NAME": "Bio \/ Nature \/ Épicerie", "Category": "INTERNATIONAL", "Address": "BIO NATURE BRANDS, SL,Avenida Costa Brava 136 Nave 4, Barcelona, 08380", "INDUSTRY": "BIO NATURE BRANDS, SL", "CUST_ACCT": "ESP0005", "PHONE_DIR": "N\/A", "ZIP_CODE": "08380", "CITY": "BARCELONA", "E_MAIL": "N\/A", "MEASURE": -999999 }, "geometry": { "type": "Point", "coordinates": [ 2.7410535, 41.654324 ] } },
{ "type": "Feature", "properties": { "NAME": "Bio \/ Nature \/ Épicerie", "Category": "FRENCH", "Address": "TILOU NATURE 30 VILLENEUVE LES AVIGNON,59 Chemin du Montagne, Villeneuve les Avignon, 30400", "INDUSTRY": "TILOU NATURE 30 VILLENEUVE LES AVIGNON", "CUST_ACCT": "300018", "PHONE_DIR": "06 49 41 88 89", "ZIP_CODE": "30400", "CITY": "VILLENEUVE LES AVIGNON", "E_MAIL": "N\/A", "MEASURE": -999999 }, "geometry": { "type": "Point", "coordinates": [ 4.772305, 43.9761843 ] } },
{ "type": "Feature", "properties": { "NAME": "Grossiste \/ Distributeur", "Category": "INTERNATIONAL", "Address": "MIRAZ TRADING OY 33 TAMPERE,Ahertajankatu 19, Tampere, 33720", "INDUSTRY": "MIRAZ TRADING OY 33 TAMPERE", "CUST_ACCT": "FIN0001", "PHONE_DIR": "+385 40 0693232", "ZIP_CODE": "33720", "CITY": "TAMPERE", "E_MAIL": "N\/A", "MEASURE": -999999 }, "geometry": { "type": "Point", "coordinates": [ 23.8745205, 61.4594744 ] } },
{ "type": "Feature", "properties": { "NAME": "Boutique \/ Concept store", "Category": "INTERNATIONAL", "Address": "MATIC STREHAR S.P.,Ljubljanska cesta 3, Dob, 1233", "INDUSTRY": "MATIC STREHAR S.P.", "CUST_ACCT": "SLO001", "PHONE_DIR": "N\/A", "ZIP_CODE": "1233", "CITY": "DOB", "E_MAIL": "N\/A", "MEASURE": -999999 }, "geometry": { "type": "Point", "coordinates": [ 14.6252844, 46.153227 ] } },
{ "type": "Feature", "properties": { "NAME": "Boutique \/ Concept store", "Category": "INTERNATIONAL", "Address": "PRIVATE ENTERPRISE GOLDEN-PHARM,1 Mahnitohorska Str., Kyiv, 02094", "INDUSTRY": "PRIVATE ENTERPRISE GOLDEN-PHARM", "CUST_ACCT": "UKR0001", "PHONE_DIR": "38 (044) 501-04-98", "ZIP_CODE": "02094", "CITY": "KYIV", "E_MAIL": "N\/A", "MEASURE": -999999 }, "geometry": { "type": "Point", "coordinates": [ 30.6450047, 50.4547744 ] } },
{ "type": "Feature", "properties": { "NAME": "Boutique \/ Concept store", "Category": "INTERNATIONAL", "Address": "ORGANICO WORLD DOR NATURAL FOOD AND PRODUCTS, Shop 223, Musalla, Dubai, United Arab Emirates", "INDUSTRY": "ORGANICO WORLD DOR NATURAL FOOD AND PRODUCTS", "CUST_ACCT": "BHR001", "PHONE_DIR": "N\/A", "ZIP_CODE": "00000", "CITY": "MUSALLA", "E_MAIL": "N\/A", "MEASURE": -999999 }, "geometry": { "type": "Point", "coordinates": [ 55.2422642, 25.171277 ] } },
{ "type": "Feature", "properties": { "NAME": "Boutique \/ Concept store", "Category": "FRENCH", "Address": "FATOUMATA KABA 92,Suresnes France", "INDUSTRY": "FATOUMATA KABA 92", "CUST_ACCT": "920033", "PHONE_DIR": "N\/A", "ZIP_CODE": "92150", "CITY": "SURESNES", "E_MAIL": "N\/A", "MEASURE": -999999 }, "geometry": { "type": "Point", "coordinates": [ 2.21815, 48.8704428 ] } },
{ "type": "Feature", "properties": { "NAME": "Boutique \/ Concept store", "Category": "FRENCH", "Address": "MYRHA-TEX 75 PARIS,73 Rue Myrha, Paris, 75018", "INDUSTRY": "MYRHA-TEX 75 PARIS", "CUST_ACCT": "750076", "PHONE_DIR": "0676656106", "ZIP_CODE": "75018", "CITY": "PARIS", "E_MAIL": "N\/A", "MEASURE": -999999 }, "geometry": { "type": "Point", "coordinates": [ 2.3499422, 48.886542 ] } },
{ "type": "Feature", "properties": { "NAME": "Boutique \/ Concept store", "Category": "INTERNATIONAL", "Address": "Okružná 1297\/54, 071 01 Michalovce, Slovakia", "INDUSTRY": "BITON SRO DZURKO VLADIMIR", "CUST_ACCT": "SK0101", "PHONE_DIR": "N\/A", "ZIP_CODE": "07101", "CITY": "MICHALOVCE", "E_MAIL": "N\/A", "MEASURE": -999999 }, "geometry": { "type": "Point", "coordinates": [ 21.9132606, 48.7465 ] } },
{ "type": "Feature", "properties": { "NAME": "Boutique \/ Concept store", "Category": "INTERNATIONAL", "Address": "JORDKLOK AKTIEBOLAG,Dammliden 5, Österhaninge, 13769", "INDUSTRY": "JORDKLOK AKTIEBOLAG", "CUST_ACCT": "SWE001", "PHONE_DIR": "N\/A", "ZIP_CODE": "13769", "CITY": "OSTERHANINGE", "E_MAIL": "N\/A", "MEASURE": -999999 }, "geometry": { "type": "Point", "coordinates": [ 18.1668749, 59.1528329 ] } },
{ "type": "Feature", "properties": { "NAME": "Boutique \/ Concept store", "Category": "FRENCH", "Address": "LAMAZERE GESTION PRIVEE,73 Rue Blatin, Clermont-Ferrand, 63000", "INDUSTRY": "LAMAZERE GESTION PRIVEE", "CUST_ACCT": "630023", "PHONE_DIR": "04 44 44 95 65", "ZIP_CODE": "63000", "CITY": "CLERMONT FERRAND", "E_MAIL": "N\/A", "MEASURE": -999999 }, "geometry": { "type": "Point", "coordinates": [ 3.0757052, 45.7763804 ] } },
{ "type": "Feature", "properties": { "NAME": "Boutique \/ Concept store", "Category": "INTERNATIONAL", "Address": "HOSANNA WIND LIMITED, Block D Hang Cheong Factory, Hong Kong, , Hong Kong", "INDUSTRY": "HOSANNA WIND LIMITED", "CUST_ACCT": "HK0001", "PHONE_DIR": "+852 59661995", "ZIP_CODE": "00000", "CITY": "HONG KONG", "E_MAIL": "N\/A", "MEASURE": -999999 }, "geometry": { "type": "Point", "coordinates": [ 114.1500094, 22.3402479 ] } },
{ "type": "Feature", "properties": { "NAME": "Boutique \/ Concept store", "Category": "FRENCH", "Address": "ARMC INC 42 BALBIGNY,722 Chemin du Bernand, Balbigny, 42150", "INDUSTRY": "ARMC INC 42 BALBIGNY", "CUST_ACCT": "420046", "PHONE_DIR": "N\/A", "ZIP_CODE": "42150", "CITY": "BALBIGNY", "E_MAIL": "N\/A", "MEASURE": -999999 }, "geometry": { "type": "Point", "coordinates": [ 4.183106, 45.8191149 ] } },
{ "type": "Feature", "properties": { "NAME": "Beauté \/ Cosmétique \/ Bien-être", "Category": "FRENCH", "Address": "INSTITUT DE BEAUTE BELLA E SERENA 83,21 Avenue de Brignoles, Rougiers, 83170", "INDUSTRY": "INSTITUT DE BEAUTE BELLA E SERENA 83", "CUST_ACCT": "830021", "PHONE_DIR": "N\/A", "ZIP_CODE": "83170", "CITY": "ROUGIERS", "E_MAIL": "N\/A", "MEASURE": -999999 }, "geometry": { "type": "Point", "coordinates": [ 5.8498114, 43.3923992 ] } },
{ "type": "Feature", "properties": { "NAME": "Boutique \/ Concept store", "Category": "FRENCH", "Address": "LES CAPRICIEUSES 66,3 Rue Maréchal Foch, St Hippolyte, 66510", "INDUSTRY": "LES CAPRICIEUSES 66", "CUST_ACCT": "660017", "PHONE_DIR": "N\/A", "ZIP_CODE": "66510", "CITY": "ST HIPPOLYTE", "E_MAIL": "N\/A", "MEASURE": -999999 }, "geometry": { "type": "Point", "coordinates": [ 2.9881765, 42.7742162 ] } },
{ "type": "Feature", "properties": { "NAME": "Boutique \/ Concept store", "Category": "INTERNATIONAL", "Address": "COSMOS FACILITY SERVICES,Wethouder Steinmetzstraat 57, Amsterdam, 1107BW", "INDUSTRY": "COSMOS FACILITY SERVICES", "CUST_ACCT": "PB0004", "PHONE_DIR": "0031 (0) 625504822", "ZIP_CODE": "1107BW", "CITY": "AMSERDAM", "E_MAIL": "N\/A", "MEASURE": -999999 }, "geometry": { "type": "Point", "coordinates": [ 4.9949718, 52.2949381 ] } },
{ "type": "Feature", "properties": { "NAME": "Boutique \/ Concept store", "Category": "INTERNATIONAL", "Address": "DAM JAH BAMBIA CO, 10 Rue Nelson Mandela, Gambie, 4290, Gambia", "INDUSTRY": "DAM JAH BAMBIA CO", "CUST_ACCT": "DIVMC", "PHONE_DIR": "N\/A", "ZIP_CODE": "4290", "CITY": "GAMBIE", "E_MAIL": "N\/A", "MEASURE": -999999 }, "geometry": { "type": "Point", "coordinates": [ -16.6665494, 13.4528399 ] } },
{ "type": "Feature", "properties": { "NAME": "Beauté \/ Cosmétique \/ Bien-être", "Category": "INTERNATIONAL", "Address": "ETS BIOMI COSMETICS,237 Montée Aurore, Yaoundé, 237", "INDUSTRY": "ETS BIOMI COSMETICS", "CUST_ACCT": "CM0001", "PHONE_DIR": "06 99 88 69 37", "ZIP_CODE": "237", "CITY": "YAOUNDE", "E_MAIL": "N\/A", "MEASURE": -999999 }, "geometry": { "type": "Point", "coordinates": [ 11.5480229, 3.8561952 ] } },
{ "type": "Feature", "properties": { "NAME": "Boutique \/ Concept store", "Category": "INTERNATIONAL", "Address": "ANASTASIIA DROZDOVAS,Minsko pl. 33A, Vilnius, 02121", "INDUSTRY": "ANASTASIIA DROZDOVAS", "CUST_ACCT": "LT0001", "PHONE_DIR": "N\/A", "ZIP_CODE": "2121", "CITY": "VILNIUS", "E_MAIL": "N\/A", "MEASURE": -999999 }, "geometry": { "type": "Point", "coordinates": [ 22.1746304, 53.1504382 ] } },
{ "type": "Feature", "properties": { "NAME": "Boutique \/ Concept store", "Category": "INTERNATIONAL", "Address": "YOVEE GRZEGORZ MOKOBODZKI,Ul. Bema 10, Jozefów, 05-420", "INDUSTRY": "YOVEE GRZEGORZ MOKOBODZKI", "CUST_ACCT": "PL0001", "PHONE_DIR": "N\/A", "ZIP_CODE": "05-420", "CITY": "JOZEFOW", "E_MAIL": "N\/A", "MEASURE": -999999 }, "geometry": { "type": "Point", "coordinates": [ 21.2129178, 52.130123299999987 ] } },
{ "type": "Feature", "properties": { "NAME": "Grossiste \/ Distributeur", "Category": "INTERNATIONAL", "Address": "SIKO Trading Ltd., Europe", "INDUSTRY": "SI KO TRADING", "CUST_ACCT": "BG0001", "PHONE_DIR": "+359878660913", "ZIP_CODE": "2850", "CITY": "PETRICH", "E_MAIL": "N\/A", "MEASURE": -999999 }, "geometry": { "type": "Point", "coordinates": [ 8.8245256, 50.4045869 ] } },
{ "type": "Feature", "properties": { "NAME": "Boutique \/ Concept store", "Category": "INTERNATIONAL", "Address": "INNOVA+SRLS,Via della Pedica 44A, Rome, 00046", "INDUSTRY": "INNOVA+SRLS", "CUST_ACCT": "ITA0003", "PHONE_DIR": "N\/A", "ZIP_CODE": "00046", "CITY": "ROME", "E_MAIL": "N\/A", "MEASURE": -999999 }, "geometry": { "type": "Point", "coordinates": [ 12.6861307, 41.7853822 ] } },
{ "type": "Feature", "properties": { "NAME": "Boutique \/ Concept store", "Category": "INTERNATIONAL", "Address": "MAI HING INDUSTRIAL BUILDING,Flat \/ Rm A7 Blk A 5\/F, Hong Kong, HK", "INDUSTRY": "MAI HING INDUSTRIAL BUILDING", "CUST_ACCT": "HK0003", "PHONE_DIR": "852 62 34 76 78", "ZIP_CODE": "HK", "CITY": "HONG KONG", "E_MAIL": "N\/A", "MEASURE": -999999 }, "geometry": { "type": "Point", "coordinates": [ 114.225174, 22.3088856 ] } },
{ "type": "Feature", "properties": { "NAME": "Boutique \/ Concept store", "Category": "INTERNATIONAL", "Address": "DREAM BIGGER VENTURES GMBH,Handpans & Herbs, Lienz, 9900", "INDUSTRY": "DREAM BIGGER VENTURES GMBH", "CUST_ACCT": "AT0001", "PHONE_DIR": "N\/A", "ZIP_CODE": "9900", "CITY": "LIENZ", "E_MAIL": "N\/A", "MEASURE": -999999 }, "geometry": { "type": "Point", "coordinates": [ 12.7678047, 46.8297001 ] } },
{ "type": "Feature", "properties": { "NAME": "Grossiste \/ Distributeur", "Category": "INTERNATIONAL", "Address": "CENTRIUM TRADING LIMITED, Rua dos Pescadores 166, Macau, , Macau", "INDUSTRY": "CENTRIUM TRADING LIMITED", "CUST_ACCT": "CHI0002", "PHONE_DIR": "N\/A", "ZIP_CODE": "N\/A", "CITY": "MACAU SAR", "E_MAIL": "N\/A", "MEASURE": -999999 }, "geometry": { "type": "Point", "coordinates": [ 113.5496948, 22.1900675 ] } },
{ "type": "Feature", "properties": { "NAME": "Boutique \/ Concept store", "Category": "INTERNATIONAL", "Address": "CORBIN YOANN,Avenida de la Marina 6115, Mazatlan, 82103", "INDUSTRY": "CORBIN YOANN", "CUST_ACCT": "MEX0001", "PHONE_DIR": "N\/A", "ZIP_CODE": "82103", "CITY": "MAZATLAN", "E_MAIL": "N\/A", "MEASURE": -999999 }, "geometry": { "type": "Point", "coordinates": [ -106.446665, 23.2771084 ] } },
{ "type": "Feature", "properties": { "NAME": "Beauté \/ Cosmétique \/ Bien-être", "Category": "FRENCH", "Address": "SAS KF COSMETIC,70 Rue de Darcin, Cusset, 03300", "INDUSTRY": "SAS KF COSMETIC", "CUST_ACCT": "030022", "PHONE_DIR": "09 81 68 92 69", "ZIP_CODE": "03300", "CITY": "CUSSET", "E_MAIL": "N\/A", "MEASURE": -999999 }, "geometry": { "type": "Point", "coordinates": [ 3.4337732, 46.1362459 ] } },
{ "type": "Feature", "properties": { "NAME": "Boutique \/ Concept store", "Category": "INTERNATIONAL", "Address": "OKOSTJERNA AS,Gauterodveien 6, Norway, 3150", "INDUSTRY": "OKOSTJERNA AS", "CUST_ACCT": "NO0001", "PHONE_DIR": "N\/A", "ZIP_CODE": "3150", "CITY": "NORWAY", "E_MAIL": "N\/A", "MEASURE": -999999 }, "geometry": { "type": "Point", "coordinates": [ 10.4517027, 59.275506699999987 ] } },
{ "type": "Feature", "properties": { "NAME": "Boutique \/ Concept store", "Category": "INTERNATIONAL", "Address": "AME LLU OU, Ruutli 5LA, Parnu Linn, 80011, Estonia", "INDUSTRY": "AME LLU OU", "CUST_ACCT": "EST0003", "PHONE_DIR": "N\/A", "ZIP_CODE": "80011", "CITY": "PARNU LINN", "E_MAIL": "N\/A", "MEASURE": -999999 }, "geometry": { "type": "Point", "coordinates": [ 24.5059376, 58.3847542 ] } },
{ "type": "Feature", "properties": { "NAME": "Beauté \/ Cosmétique \/ Bien-être", "Category": "FRENCH", "Address": "EUROPE COSMETIQUE,13 Rue du Maréchal Foch, Strasbourg, 67000", "INDUSTRY": "EUROPE COSMETIQUE", "CUST_ACCT": "670068", "PHONE_DIR": "07-69-48-60-38", "ZIP_CODE": "67000", "CITY": "STRASBOURG", "E_MAIL": "N\/A", "MEASURE": -999999 }, "geometry": { "type": "Point", "coordinates": [ 7.7486985, 48.5896513 ] } },
{ "type": "Feature", "properties": { "NAME": "Boutique \/ Concept store", "Category": "INTERNATIONAL", "Address": "Hollywood Centre, 6th Floor Room 606, Hong Kong", "INDUSTRY": "GOLDEN MANGO", "CUST_ACCT": "HK0005", "PHONE_DIR": "N\/A", "ZIP_CODE": "HK", "CITY": "HONG KONG", "E_MAIL": "N\/A", "MEASURE": -999999 }, "geometry": { "type": "Point", "coordinates": [ 114.1482076, 22.285523 ] } },
{ "type": "Feature", "properties": { "NAME": "Boutique \/ Concept store", "Category": "INTERNATIONAL", "Address": "Punaauia, 98718, French Polynesia", "INDUSTRY": "MEDIPAC 98", "CUST_ACCT": "980025", "PHONE_DIR": "N\/A", "ZIP_CODE": "98718", "CITY": "PUNAAUIA", "E_MAIL": "N\/A", "MEASURE": -999999 }, "geometry": { "type": "Point", "coordinates": [ -149.6123987, -17.5936654 ] } },
{ "type": "Feature", "properties": { "NAME": "Bio \/ Vrac \/ Épicerie", "Category": "INTERNATIONAL", "Address": "I Love Puur,Pays-Bas, Gorinchem", "INDUSTRY": "I Love Puur", "CUST_ACCT": "N\/A", "PHONE_DIR": "31626214777", "ZIP_CODE": "N\/A", "CITY": "N\/A", "E_MAIL": "info@bewustpuur.nl", "MEASURE": -999999 }, "geometry": { "type": "Point", "coordinates": [ 4.962207, 51.837471 ] } },
{ "type": "Feature", "properties": { "NAME": "Concept store \/ Cadeaux \/ Lifestyle", "Category": "FRENCH", "Address": "Camallera, 17468, Spain", "INDUSTRY": "MADEMOISELLE C", "CUST_ACCT": "N\/A", "PHONE_DIR": "33686856743", "ZIP_CODE": "N\/A", "CITY": "N\/A", "E_MAIL": "bonjour@mademoiselleconfettis.com", "MEASURE": -999999 }, "geometry": { "type": "Point", "coordinates": [ 2.9628657, 42.1220144 ] } },
{ "type": "Feature", "properties": { "NAME": "Artisan \/ Créateur \/ Autres", "Category": "INTERNATIONAL", "Address": "C.K Créations,5310 Faimes Belgium", "INDUSTRY": "C.K Créations", "CUST_ACCT": "N\/A", "PHONE_DIR": "32497784140", "ZIP_CODE": "N\/A", "CITY": "N\/A", "E_MAIL": "cindykellinger@hotmail.com", "MEASURE": -999999 }, "geometry": { "type": "Point", "coordinates": [ 5.3649915, 50.5979045 ] } },
{ "type": "Feature", "properties": { "NAME": "Beauté \/ Cosmétique \/ Bien-être", "Category": "FRENCH", "Address": "Nature cosmétique,France, Cucq", "INDUSTRY": "Nature cosmétique", "CUST_ACCT": "N\/A", "PHONE_DIR": "33633228900", "ZIP_CODE": "N\/A", "CITY": "N\/A", "E_MAIL": "degrootcaroline62@gmail.com", "MEASURE": -999999 }, "geometry": { "type": "Point", "coordinates": [ 1.588984, 50.4814796 ] } },
{ "type": "Feature", "properties": { "NAME": "Beauté \/ Cosmétique \/ Bien-être", "Category": "FRENCH", "Address": "Caliaé Bien-être et Senteurs,France, Pierrefeu-du-Var", "INDUSTRY": "Caliaé Bien-être et Senteurs", "CUST_ACCT": "N\/A", "PHONE_DIR": "33650833215", "ZIP_CODE": "N\/A", "CITY": "N\/A", "E_MAIL": "bertagnisandrine72@gmail.com", "MEASURE": -999999 }, "geometry": { "type": "Point", "coordinates": [ 6.0568784, 43.4359298 ] } },
{ "type": "Feature", "properties": { "NAME": "Concept store \/ Cadeaux \/ Lifestyle", "Category": "FRENCH", "Address": "76400 Saint-Vigor-dYmonville, France", "INDUSTRY": "Charmeur de Serpents", "CUST_ACCT": "N\/A", "PHONE_DIR": "33189165315", "ZIP_CODE": "N\/A", "CITY": "N\/A", "E_MAIL": "gpl@charmeurdeserpents.com", "MEASURE": -999999 }, "geometry": { "type": "Point", "coordinates": [ 0.360227, 49.495267 ] } },
{ "type": "Feature", "properties": { "NAME": "Concept store \/ Cadeaux \/ Lifestyle", "Category": "FRENCH", "Address": "SHIKAMARU,France, Orsay", "INDUSTRY": "SHIKAMARU", "CUST_ACCT": "N\/A", "PHONE_DIR": "33766194776", "ZIP_CODE": "N\/A", "CITY": "N\/A", "E_MAIL": "lafourmiverte.orsay@GMAIL.COM", "MEASURE": -999999 }, "geometry": { "type": "Point", "coordinates": [ 2.18206, 48.69758 ] } },
{ "type": "Feature", "properties": { "NAME": "Concept store \/ Cadeaux \/ Lifestyle", "Category": "INTERNATIONAL", "Address": "Chrysocollia SRL,Belgique, Jambes", "INDUSTRY": "Chrysocollia SRL", "CUST_ACCT": "N\/A", "PHONE_DIR": "3281305763", "ZIP_CODE": "N\/A", "CITY": "N\/A", "E_MAIL": "laurence.dumont@etiknature.be", "MEASURE": -999999 }, "geometry": { "type": "Point", "coordinates": [ 4.8901525, 50.4562335 ] } },
{ "type": "Feature", "properties": { "NAME": "Concept store \/ Cadeaux \/ Lifestyle", "Category": "FRENCH", "Address": "L'Aura,France, Bouchain", "INDUSTRY": "L'Aura", "CUST_ACCT": "N\/A", "PHONE_DIR": "33768237606", "ZIP_CODE": "N\/A", "CITY": "N\/A", "E_MAIL": "laurab.concept.store@gmail.com", "MEASURE": -999999 }, "geometry": { "type": "Point", "coordinates": [ 3.3202676, 50.281346199999987 ] } },
{ "type": "Feature", "properties": { "NAME": "Concept store \/ Cadeaux \/ Lifestyle", "Category": "FRENCH", "Address": "ANCESTYLE\/COSMESTORE,France, Lyon", "INDUSTRY": "ANCESTYLE\/COSMESTORE", "CUST_ACCT": "N\/A", "PHONE_DIR": "33603462097", "ZIP_CODE": "N\/A", "CITY": "N\/A", "E_MAIL": "loccitane.croixrousse.distrib@gmail.com", "MEASURE": -999999 }, "geometry": { "type": "Point", "coordinates": [ 4.8322254, 45.7766856 ] } },
{ "type": "Feature", "properties": { "NAME": "Bio \/ Vrac \/ Épicerie", "Category": "FRENCH", "Address": "KOOMA - Les Epiciers Bio de la Manufacture,France, Strasbourg", "INDUSTRY": "KOOMA - Les Epiciers Bio de la Manufacture", "CUST_ACCT": "N\/A", "PHONE_DIR": "33367700403", "ZIP_CODE": "N\/A", "CITY": "N\/A", "E_MAIL": "magasin@kooma-strasbourg.fr", "MEASURE": -999999 }, "geometry": { "type": "Point", "coordinates": [ 7.7581145, 48.5809618 ] } },
{ "type": "Feature", "properties": { "NAME": "Bio \/ Vrac \/ Épicerie", "Category": "FRENCH", "Address": "Biobulle Azur,France, Nice", "INDUSTRY": "Biobulle Azur", "CUST_ACCT": "N\/A", "PHONE_DIR": "33493566942", "ZIP_CODE": "N\/A", "CITY": "N\/A", "E_MAIL": "biobulle.azur@orange.fr", "MEASURE": -999999 }, "geometry": { "type": "Point", "coordinates": [ 7.2896001, 43.7040823 ] } },
{ "type": "Feature", "properties": { "NAME": "Concept store \/ Cadeaux \/ Lifestyle", "Category": "FRENCH", "Address": "bebe cash,France, Biguglia", "INDUSTRY": "bebe cash", "CUST_ACCT": "N\/A", "PHONE_DIR": "33619154806", "ZIP_CODE": "N\/A", "CITY": "N\/A", "E_MAIL": "seventeen.admi@gmail.com", "MEASURE": -999999 }, "geometry": { "type": "Point", "coordinates": [ 9.4384124, 42.6355476 ] } },
{ "type": "Feature", "properties": { "NAME": "Concept store \/ Cadeaux \/ Lifestyle", "Category": "FRENCH", "Address": "Thé l'Artiste,France, Maule", "INDUSTRY": "Thé l'Artiste", "CUST_ACCT": "N\/A", "PHONE_DIR": "33685525985", "ZIP_CODE": "N\/A", "CITY": "N\/A", "E_MAIL": "the.lartiste@yahoo.com", "MEASURE": -999999 }, "geometry": { "type": "Point", "coordinates": [ 1.8489603, 48.9104201 ] } },
{ "type": "Feature", "properties": { "NAME": "Concept store \/ Cadeaux \/ Lifestyle", "Category": "FRENCH", "Address": "Graine de folie,France, Calonne-Ricouart", "INDUSTRY": "Graine de folie", "CUST_ACCT": "N\/A", "PHONE_DIR": "33625935113", "ZIP_CODE": "N\/A", "CITY": "N\/A", "E_MAIL": "grainedefolie62@outlook.com", "MEASURE": -999999 }, "geometry": { "type": "Point", "coordinates": [ 2.4845239, 50.486946399999987 ] } },
{ "type": "Feature", "properties": { "NAME": "Beauté \/ Cosmétique \/ Bien-être", "Category": "FRENCH", "Address": "REINE ELIXIRS,France, Sedan", "INDUSTRY": "REINE ELIXIRS", "CUST_ACCT": "N\/A", "PHONE_DIR": "33628186289", "ZIP_CODE": "N\/A", "CITY": "N\/A", "E_MAIL": "contact@reine-elixirs.com", "MEASURE": -999999 }, "geometry": { "type": "Point", "coordinates": [ 4.9478075, 49.7010224 ] } },
{ "type": "Feature", "properties": { "NAME": "Beauté \/ Cosmétique \/ Bien-être", "Category": "FRENCH", "Address": "Institut Grain de Beauté,France, Chauny", "INDUSTRY": "Institut Grain de Beauté", "CUST_ACCT": "N\/A", "PHONE_DIR": "33658198661", "ZIP_CODE": "N\/A", "CITY": "N\/A", "E_MAIL": "institutgraindebeaute02@gmail.com", "MEASURE": -999999 }, "geometry": { "type": "Point", "coordinates": [ 3.2193667, 49.6153303 ] } },
{ "type": "Feature", "properties": { "NAME": "Concept store \/ Cadeaux \/ Lifestyle", "Category": "FRENCH", "Address": "MAD ORIGINS,France, Istres", "INDUSTRY": "MAD ORIGINS", "CUST_ACCT": "N\/A", "PHONE_DIR": "33658149971", "ZIP_CODE": "N\/A", "CITY": "N\/A", "E_MAIL": "madysson.madorigins@gmail.com", "MEASURE": -999999 }, "geometry": { "type": "Point", "coordinates": [ 4.9717423, 43.5176903 ] } },
{ "type": "Feature", "properties": { "NAME": "Concept store \/ Cadeaux \/ Lifestyle", "Category": "FRENCH", "Address": "NOIA,France, Tours", "INDUSTRY": "NOIA", "CUST_ACCT": "N\/A", "PHONE_DIR": "33665472223", "ZIP_CODE": "N\/A", "CITY": "N\/A", "E_MAIL": "michael.ohayon87@gmail.com", "MEASURE": -999999 }, "geometry": { "type": "Point", "coordinates": [ 0.6819709, 47.3930639 ] } },
{ "type": "Feature", "properties": { "NAME": "Beauté \/ Cosmétique \/ Bien-être", "Category": "FRENCH", "Address": "ESTHETIQUE BEAUTE DISTRIBUTION,France, Le Blanc", "INDUSTRY": "ESTHETIQUE BEAUTE DISTRIBUTION", "CUST_ACCT": "N\/A", "PHONE_DIR": "33648963290", "ZIP_CODE": "N\/A", "CITY": "N\/A", "E_MAIL": "esthetique.beaute.distribution@gmail.com", "MEASURE": -999999 }, "geometry": { "type": "Point", "coordinates": [ 1.0631169, 46.6327918 ] } },
{ "type": "Feature", "properties": { "NAME": "Concept store \/ Cadeaux \/ Lifestyle", "Category": "FRENCH", "Address": "Bulle de rêve,France, Houdain", "INDUSTRY": "Bulle de rêve", "CUST_ACCT": "N\/A", "PHONE_DIR": "33607506067", "ZIP_CODE": "N\/A", "CITY": "N\/A", "E_MAIL": "Jenny.guerin62@gmail.com", "MEASURE": -999999 }, "geometry": { "type": "Point", "coordinates": [ 2.5653401, 50.5227866 ] } },
{ "type": "Feature", "properties": { "NAME": "Concept store \/ Cadeaux \/ Lifestyle", "Category": "FRENCH", "Address": "L'échappée Belle,La Calmette,France", "INDUSTRY": "L'échappée Belle", "CUST_ACCT": "N\/A", "PHONE_DIR": "33466631333", "ZIP_CODE": "N\/A", "CITY": "N\/A", "E_MAIL": "lechapbelle@gmail.com", "MEASURE": -999999 }, "geometry": { "type": "Point", "coordinates": [ 4.2574511, 43.9251675 ] } },
{ "type": "Feature", "properties": { "NAME": "Concept store \/ Cadeaux \/ Lifestyle", "Category": "FRENCH", "Address": "Francement bon,Boncourt,France", "INDUSTRY": "Francement bon", "CUST_ACCT": "N\/A", "PHONE_DIR": "33667664868", "ZIP_CODE": "N\/A", "CITY": "N\/A", "E_MAIL": "mifrance.bysandie@gmail.com", "MEASURE": -999999 }, "geometry": { "type": "Point", "coordinates": [ 1.4625518, 48.8460449 ] } },
{ "type": "Feature", "properties": { "NAME": "Concept store \/ Cadeaux \/ Lifestyle", "Category": "FRENCH", "Address": "La clef des champs,Condé-en-Normandie,France", "INDUSTRY": "La clef des champs", "CUST_ACCT": "N\/A", "PHONE_DIR": "33614222110", "ZIP_CODE": "N\/A", "CITY": "N\/A", "E_MAIL": "laclefdeschamps14110@gmail.com", "MEASURE": -999999 }, "geometry": { "type": "Point", "coordinates": [ -0.5636181, 48.8521975 ] } },
{ "type": "Feature", "properties": { "NAME": "Concept store \/ Cadeaux \/ Lifestyle", "Category": "INTERNATIONAL", "Address": "Fajne s. r. o.,Kosice,Slovaquie", "INDUSTRY": "Fajne s. r. o.", "CUST_ACCT": "N\/A", "PHONE_DIR": "4,21905E+11", "ZIP_CODE": "N\/A", "CITY": "N\/A", "E_MAIL": "davidjakub@gmail.com", "MEASURE": -999999 }, "geometry": { "type": "Point", "coordinates": [ 21.2586161, 48.716738799999987 ] } },
{ "type": "Feature", "properties": { "NAME": "Concept store \/ Cadeaux \/ Lifestyle", "Category": "FRENCH", "Address": "Sara Natura,68780 Michelbach-le-Haut France", "INDUSTRY": "Sara natura", "CUST_ACCT": "N\/A", "PHONE_DIR": "33612223170", "ZIP_CODE": "N\/A", "CITY": "N\/A", "E_MAIL": "saranatura@outlook.fr", "MEASURE": -999999 }, "geometry": { "type": "Point", "coordinates": [ 7.4797281, 47.5247131 ] } },
{ "type": "Feature", "properties": { "NAME": "Concept store \/ Cadeaux \/ Lifestyle", "Category": "FRENCH", "Address": "FISH'S'THETIQUE,17430 - Tonnay Charente,France", "INDUSTRY": "FISH'S'THETIQUE", "CUST_ACCT": "N\/A", "PHONE_DIR": "33621592283", "ZIP_CODE": "N\/A", "CITY": "N\/A", "E_MAIL": "vanouch59@hotmail.fr", "MEASURE": -999999 }, "geometry": { "type": "Point", "coordinates": [ -0.8955711, 45.9449413 ] } },
{ "type": "Feature", "properties": { "NAME": "Bio \/ Vrac \/ Épicerie", "Category": "INTERNATIONAL", "Address": "Le monde des saveurs Sàrl,Courtemaîche,Suisse", "INDUSTRY": "Le monde des saveurs Sàrl", "CUST_ACCT": "N\/A", "PHONE_DIR": "41796441207", "ZIP_CODE": "N\/A", "CITY": "N\/A", "E_MAIL": "julie.etienne@hotmail.ch", "MEASURE": -999999 }, "geometry": { "type": "Point", "coordinates": [ 7.0764562, 47.4176569 ] } },
{ "type": "Feature", "properties": { "NAME": "Concept store \/ Cadeaux \/ Lifestyle", "Category": "FRENCH", "Address": "ODLYS,Poussan,France", "INDUSTRY": "ODLYS", "CUST_ACCT": "N\/A", "PHONE_DIR": "33430722311", "ZIP_CODE": "N\/A", "CITY": "N\/A", "E_MAIL": "odlysboutique@gmail.com", "MEASURE": -999999 }, "geometry": { "type": "Point", "coordinates": [ 3.6689843, 43.4876347 ] } },
{ "type": "Feature", "properties": { "NAME": "Concept store \/ Cadeaux \/ Lifestyle", "Category": "FRENCH", "Address": "30400 Villeneuve-les-Avignon, France", "INDUSTRY": "Alguoa", "CUST_ACCT": "N\/A", "PHONE_DIR": "33687557782", "ZIP_CODE": "N\/A", "CITY": "N\/A", "E_MAIL": "laurentdumont78@outlook.fr", "MEASURE": -999999 }, "geometry": { "type": "Point", "coordinates": [ 4.795053, 43.9813848 ] } },
{ "type": "Feature", "properties": { "NAME": "Concept store \/ Cadeaux \/ Lifestyle", "Category": "FRENCH", "Address": "sarl chez lucette et fils,Bonifacio,France", "INDUSTRY": "sarl chez lucette et fils", "CUST_ACCT": "N\/A", "PHONE_DIR": "33695735321", "ZIP_CODE": "N\/A", "CITY": "N\/A", "E_MAIL": "lucettegourmet@gmail.com", "MEASURE": -999999 }, "geometry": { "type": "Point", "coordinates": [ 9.1601032, 41.3886616 ] } },
{ "type": "Feature", "properties": { "NAME": "Concept store \/ Cadeaux \/ Lifestyle", "Category": "INTERNATIONAL", "Address": "Buona Vita Concept Store,Watermael-Boitsfort,Belgique", "INDUSTRY": "Buona Vita Concept Store", "CUST_ACCT": "N\/A", "PHONE_DIR": "32496221674", "ZIP_CODE": "N\/A", "CITY": "N\/A", "E_MAIL": "buonavitaconcept@gmail.com", "MEASURE": -999999 }, "geometry": { "type": "Point", "coordinates": [ 4.4180282, 50.7967475 ] } },
{ "type": "Feature", "properties": { "NAME": "Concept store \/ Cadeaux \/ Lifestyle", "Category": "FRENCH", "Address": "100 % Frenchy,Libourne,France", "INDUSTRY": "100 % Frenchy", "CUST_ACCT": "N\/A", "PHONE_DIR": "33677931894", "ZIP_CODE": "N\/A", "CITY": "N\/A", "E_MAIL": "100pour100frenchy@gmail.com", "MEASURE": -999999 }, "geometry": { "type": "Point", "coordinates": [ -0.2428479, 44.9156002 ] } },
{ "type": "Feature", "properties": { "NAME": "Concept store \/ Cadeaux \/ Lifestyle", "Category": "FRENCH", "Address": "Box lecture feel good,Pessac-sur-Dordogne,France", "INDUSTRY": "Box lecture feel good", "CUST_ACCT": "N\/A", "PHONE_DIR": "33646198056", "ZIP_CODE": "N\/A", "CITY": "N\/A", "E_MAIL": "contact@wwwmaboxlirezen.com", "MEASURE": -999999 }, "geometry": { "type": "Point", "coordinates": [ 0.0931857, 44.8190203 ] } },
{ "type": "Feature", "properties": { "NAME": "Concept store \/ Cadeaux \/ Lifestyle", "Category": "FRENCH", "Address": "L'Essentiel,Saint-Jorioz,France", "INDUSTRY": "L'Essentiel", "CUST_ACCT": "N\/A", "PHONE_DIR": "33485464987", "ZIP_CODE": "N\/A", "CITY": "N\/A", "E_MAIL": "lessentiel.naturopathie@gmail.com", "MEASURE": -999999 }, "geometry": { "type": "Point", "coordinates": [ 6.160765, 45.8317242 ] } },
{ "type": "Feature", "properties": { "NAME": "Bio \/ Vrac \/ Épicerie", "Category": "FRENCH", "Address": "Origin'Bio,Plurien,France", "INDUSTRY": "Origin'Bio", "CUST_ACCT": "N\/A", "PHONE_DIR": "33296423183", "ZIP_CODE": "N\/A", "CITY": "N\/A", "E_MAIL": "bio-vrac@laposte.net", "MEASURE": -999999 }, "geometry": { "type": "Point", "coordinates": [ -2.4020552, 48.6216012 ] } },
{ "type": "Feature", "properties": { "NAME": "Concept store \/ Cadeaux \/ Lifestyle", "Category": "FRENCH", "Address": "la souris verte,Cherbourg en Cotentin,France", "INDUSTRY": "la souris verte", "CUST_ACCT": "N\/A", "PHONE_DIR": "33663147010", "ZIP_CODE": "N\/A", "CITY": "N\/A", "E_MAIL": "lasourisverte.cherbourg@gmail.com", "MEASURE": -999999 }, "geometry": { "type": "Point", "coordinates": [ -1.6249822, 49.6402522 ] } },
{ "type": "Feature", "properties": { "NAME": "Concept store \/ Cadeaux \/ Lifestyle", "Category": "FRENCH", "Address": "SARL Les Fées Mères,Charmes,France", "INDUSTRY": "SARL Les Fées Mères", "CUST_ACCT": "N\/A", "PHONE_DIR": "33672678079", "ZIP_CODE": "N\/A", "CITY": "N\/A", "E_MAIL": "j.weber2302@gmail.com", "MEASURE": -999999 }, "geometry": { "type": "Point", "coordinates": [ 6.3004209, 48.3623308 ] } },
{ "type": "Feature", "properties": { "NAME": "Beauté \/ Cosmétique \/ Bien-être", "Category": "FRENCH", "Address": "Zen Attitude,Pontoise,France", "INDUSTRY": "Zen Attitude", "CUST_ACCT": "N\/A", "PHONE_DIR": "33610144215", "ZIP_CODE": "N\/A", "CITY": "N\/A", "E_MAIL": "zenattitudebyetincelles@gmail.com", "MEASURE": -999999 }, "geometry": { "type": "Point", "coordinates": [ 2.0985107, 49.0501425 ] } },
{ "type": "Feature", "properties": { "NAME": "Beauté \/ Cosmétique \/ Bien-être", "Category": "FRENCH", "Address": "Institut et bien être Le Saint Victorien,Savignac-sur-Leyze,France", "INDUSTRY": "Institut et bien être Le Saint Victorien", "CUST_ACCT": "N\/A", "PHONE_DIR": "33771163627", "ZIP_CODE": "N\/A", "CITY": "N\/A", "E_MAIL": "institut.lsv@gmail.com", "MEASURE": -999999 }, "geometry": { "type": "Point", "coordinates": [ 0.7954875, 44.4908113 ] } },
{ "type": "Feature", "properties": { "NAME": "Beauté \/ Cosmétique \/ Bien-être", "Category": "INTERNATIONAL", "Address": "Bio Beautycare,Hirschaid,Allemagne", "INDUSTRY": "Bio Beautycare", "CUST_ACCT": "N\/A", "PHONE_DIR": "4,91716E+11", "ZIP_CODE": "N\/A", "CITY": "N\/A", "E_MAIL": "info@bio-beautycare.de", "MEASURE": -999999 }, "geometry": { "type": "Point", "coordinates": [ 10.9896355, 49.8168771 ] } },
{ "type": "Feature", "properties": { "NAME": "Concept store \/ Cadeaux \/ Lifestyle", "Category": "INTERNATIONAL", "Address": "syllavie's,Hauptstraße 1, 77694 Kehl, Germany", "INDUSTRY": "syllavie's", "CUST_ACCT": "N\/A", "PHONE_DIR": "4,91521E+12", "ZIP_CODE": "N\/A", "CITY": "N\/A", "E_MAIL": "service@learnbeauty.de", "MEASURE": -999999 }, "geometry": { "type": "Point", "coordinates": [ 7.8067325, 48.5752417 ] } },
{ "type": "Feature", "properties": { "NAME": "Concept store \/ Cadeaux \/ Lifestyle", "Category": "FRENCH", "Address": "Revevasion,Bours,France", "INDUSTRY": "Revevasion", "CUST_ACCT": "N\/A", "PHONE_DIR": "33641049355", "ZIP_CODE": "N\/A", "CITY": "N\/A", "E_MAIL": "reve.evasion62@gmail.com", "MEASURE": -999999 }, "geometry": { "type": "Point", "coordinates": [ 6.6953824, 49.206798899999988 ] } },
{ "type": "Feature", "properties": { "NAME": "Concept store \/ Cadeaux \/ Lifestyle", "Category": "FRENCH", "Address": "Audrey Savoye,Péronne,France", "INDUSTRY": "Audrey Savoye", "CUST_ACCT": "N\/A", "PHONE_DIR": "33659064808", "ZIP_CODE": "N\/A", "CITY": "N\/A", "E_MAIL": "audreysavoyepruvost@gmail.com", "MEASURE": -999999 }, "geometry": { "type": "Point", "coordinates": [ 2.9342567, 49.9299696 ] } },
{ "type": "Feature", "properties": { "NAME": "Artisan \/ Créateur \/ Autres", "Category": "INTERNATIONAL", "Address": "L'atelier de Lynie,Soignies,Belgique", "INDUSTRY": "L'atelier de Lynie", "CUST_ACCT": "N\/A", "PHONE_DIR": "32497180547", "ZIP_CODE": "N\/A", "CITY": "N\/A", "E_MAIL": "stephanie@latelierdelynie.be", "MEASURE": -999999 }, "geometry": { "type": "Point", "coordinates": [ 4.0710462, 50.5768144 ] } },
{ "type": "Feature", "properties": { "NAME": "Concept store \/ Cadeaux \/ Lifestyle", "Category": "FRENCH", "Address": "Les trésors de Martine,Dordives,France", "INDUSTRY": "Les trésors de Martine", "CUST_ACCT": "N\/A", "PHONE_DIR": "33629872538", "ZIP_CODE": "N\/A", "CITY": "N\/A", "E_MAIL": "colin.martine45@gmail.com", "MEASURE": -999999 }, "geometry": { "type": "Point", "coordinates": [ 2.763714, 48.1478567 ] } },
{ "type": "Feature", "properties": { "NAME": "Concept store \/ Cadeaux \/ Lifestyle", "Category": "FRENCH", "Address": "CENTRE DE REMISE EN FORME,ST Christol Les Ales,France", "INDUSTRY": "CENTRE DE REMISE EN FORME", "CUST_ACCT": "N\/A", "PHONE_DIR": "33668946468", "ZIP_CODE": "N\/A", "CITY": "N\/A", "E_MAIL": "les6lucioles@wanadoo.fr", "MEASURE": -999999 }, "geometry": { "type": "Point", "coordinates": [ 4.0801626, 44.0725922 ] } },
{ "type": "Feature", "properties": { "NAME": "Concept store \/ Cadeaux \/ Lifestyle", "Category": "INTERNATIONAL", "Address": "Terrame,La Chaux-de-Fonds,Suisse", "INDUSTRY": "Terrame", "CUST_ACCT": "N\/A", "PHONE_DIR": "41788983284", "ZIP_CODE": "N\/A", "CITY": "N\/A", "E_MAIL": "terrame.shop@gmail.com", "MEASURE": -999999 }, "geometry": { "type": "Point", "coordinates": [ 6.8315177, 47.1037954 ] } },
{ "type": "Feature", "properties": { "NAME": "Beauté \/ Cosmétique \/ Bien-être", "Category": "INTERNATIONAL", "Address": "Natural Beauty Store,Winenne,Belgique", "INDUSTRY": "Natural Beauty Store", "CUST_ACCT": "N\/A", "PHONE_DIR": "32472528333", "ZIP_CODE": "N\/A", "CITY": "N\/A", "E_MAIL": "fabienne.daffe@live.com", "MEASURE": -999999 }, "geometry": { "type": "Point", "coordinates": [ 5.3091849, 50.1809703 ] } },
{ "type": "Feature", "properties": { "NAME": "Concept store \/ Cadeaux \/ Lifestyle", "Category": "FRENCH", "Address": "Beautiful,Auxerre,France", "INDUSTRY": "Beautiful", "CUST_ACCT": "N\/A", "PHONE_DIR": "33627377047", "ZIP_CODE": "N\/A", "CITY": "N\/A", "E_MAIL": "loison.stephanie123@bbox.fr", "MEASURE": -999999 }, "geometry": { "type": "Point", "coordinates": [ 3.5796247, 47.792498699999989 ] } },
{ "type": "Feature", "properties": { "NAME": "Bio \/ Vrac \/ Épicerie", "Category": "INTERNATIONAL", "Address": "Greenhousebio,Thesaloniki,Grèce", "INDUSTRY": "Greenhousebio", "CUST_ACCT": "N\/A", "PHONE_DIR": "3,06932E+11", "ZIP_CODE": "N\/A", "CITY": "N\/A", "E_MAIL": "greenhousebio@gmail.com", "MEASURE": -999999 }, "geometry": { "type": "Point", "coordinates": [ 22.9473427, 40.586123 ] } },
{ "type": "Feature", "properties": { "NAME": "Beauté \/ Cosmétique \/ Bien-être", "Category": "FRENCH", "Address": "Studio beauté,Mesnil Roc'h,France", "INDUSTRY": "Studio beauté", "CUST_ACCT": "N\/A", "PHONE_DIR": "33601045666", "ZIP_CODE": "N\/A", "CITY": "N\/A", "E_MAIL": "puget.clementine@orange.fr", "MEASURE": -999999 }, "geometry": { "type": "Point", "coordinates": [ -1.912365, 48.446937 ] } },
{ "type": "Feature", "properties": { "NAME": "Concept store \/ Cadeaux \/ Lifestyle", "Category": "FRENCH", "Address": "Flora la Cigogne,La Cadière d'Azur,France", "INDUSTRY": "Flora la Cigogne", "CUST_ACCT": "N\/A", "PHONE_DIR": "33613323482", "ZIP_CODE": "N\/A", "CITY": "N\/A", "E_MAIL": "floralacigogne@gmail.com", "MEASURE": -999999 }, "geometry": { "type": "Point", "coordinates": [ 5.7193443, 43.2109423 ] } },
{ "type": "Feature", "properties": { "NAME": "Concept store \/ Cadeaux \/ Lifestyle", "Category": "FRENCH", "Address": "SAS CEV SEV,Oberhoffen-sur-Moder,France", "INDUSTRY": "SAS CEV SEV", "CUST_ACCT": "N\/A", "PHONE_DIR": "33369402534", "ZIP_CODE": "N\/A", "CITY": "N\/A", "E_MAIL": "lacigogneenvracoberhoffen@gmail.com", "MEASURE": -999999 }, "geometry": { "type": "Point", "coordinates": [ 7.8754302, 48.7860779 ] } },
{ "type": "Feature", "properties": { "NAME": "Concept store \/ Cadeaux \/ Lifestyle", "Category": "FRENCH", "Address": "Cocoon,Brienne-le-Château,France", "INDUSTRY": "Cocoon", "CUST_ACCT": "N\/A", "PHONE_DIR": "33628077867", "ZIP_CODE": "N\/A", "CITY": "N\/A", "E_MAIL": "cocoonbrienne@outlook.com", "MEASURE": -999999 }, "geometry": { "type": "Point", "coordinates": [ 4.5286559, 48.3948459 ] } },
{ "type": "Feature", "properties": { "NAME": "Beauté \/ Cosmétique \/ Bien-être", "Category": "FRENCH", "Address": "45000 Orleans, France", "INDUSTRY": "Zenzahasoin", "CUST_ACCT": "N\/A", "PHONE_DIR": "33661256727", "ZIP_CODE": "N\/A", "CITY": "N\/A", "E_MAIL": "faouzi.45@live.fr", "MEASURE": -999999 }, "geometry": { "type": "Point", "coordinates": [ 1.9157977, 47.9108329 ] } },
{ "type": "Feature", "properties": { "NAME": "Concept store \/ Cadeaux \/ Lifestyle", "Category": "FRENCH", "Address": "Aseliance,Carcassonne,France", "INDUSTRY": "Aseliance", "CUST_ACCT": "N\/A", "PHONE_DIR": "33771940586", "ZIP_CODE": "N\/A", "CITY": "N\/A", "E_MAIL": "aseliance@gmail.com", "MEASURE": -999999 }, "geometry": { "type": "Point", "coordinates": [ 2.3538776, 43.2163338 ] } },
{ "type": "Feature", "properties": { "NAME": "Concept store \/ Cadeaux \/ Lifestyle", "Category": "FRENCH", "Address": "KIM POP,Vaires-sur-Marne,France", "INDUSTRY": "KIM POP", "CUST_ACCT": "N\/A", "PHONE_DIR": "33652757697", "ZIP_CODE": "N\/A", "CITY": "N\/A", "E_MAIL": "contact@kimexo.fr", "MEASURE": -999999 }, "geometry": { "type": "Point", "coordinates": [ 2.6404541, 48.8741256 ] } },
{ "type": "Feature", "properties": { "NAME": "Concept store \/ Cadeaux \/ Lifestyle", "Category": "FRENCH", "Address": "Cybele Envie,Nice,France", "INDUSTRY": "Cybele Envie", "CUST_ACCT": "N\/A", "PHONE_DIR": "33662667565", "ZIP_CODE": "N\/A", "CITY": "N\/A", "E_MAIL": "cybele.envie@orange.fr", "MEASURE": -999999 }, "geometry": { "type": "Point", "coordinates": [ 7.2559678, 43.7052471 ] } },
{ "type": "Feature", "properties": { "NAME": "Concept store \/ Cadeaux \/ Lifestyle", "Category": "INTERNATIONAL", "Address": "Nat'essentielle,Thimister,Belgique", "INDUSTRY": "Nat'essentielle", "CUST_ACCT": "N\/A", "PHONE_DIR": "32492539137", "ZIP_CODE": "N\/A", "CITY": "N\/A", "E_MAIL": "nat.essentielle@hotmail.com", "MEASURE": -999999 }, "geometry": { "type": "Point", "coordinates": [ 5.8550343, 50.676468899999989 ] } },
{ "type": "Feature", "properties": { "NAME": "Beauté \/ Cosmétique \/ Bien-être", "Category": "FRENCH", "Address": "21320 Avosnes, France", "INDUSTRY": "Pépites Hair&Beauty Shop", "CUST_ACCT": "N\/A", "PHONE_DIR": "33647652818", "ZIP_CODE": "N\/A", "CITY": "N\/A", "E_MAIL": "noukyebm@outlook.fr", "MEASURE": -999999 }, "geometry": { "type": "Point", "coordinates": [ 4.642105, 47.36489 ] } },
{ "type": "Feature", "properties": { "NAME": "Beauté \/ Cosmétique \/ Bien-être", "Category": "FRENCH", "Address": "Secret2Beauté,1 Place de la Mairie, 60123 Bonneuil-en-Valois, France", "INDUSTRY": "secret2beauté", "CUST_ACCT": "N\/A", "PHONE_DIR": "33634150455", "ZIP_CODE": "N\/A", "CITY": "N\/A", "E_MAIL": "audreysecret2beaute@gmail.com", "MEASURE": -999999 }, "geometry": { "type": "Point", "coordinates": [ 2.991737, 49.284935 ] } },
{ "type": "Feature", "properties": { "NAME": "Concept store \/ Cadeaux \/ Lifestyle", "Category": "FRENCH", "Address": "Univers Discount,Agde,France", "INDUSTRY": "Univers Discount", "CUST_ACCT": "N\/A", "PHONE_DIR": "33681195080", "ZIP_CODE": "N\/A", "CITY": "N\/A", "E_MAIL": "montagnep.ud@gmail.com", "MEASURE": -999999 }, "geometry": { "type": "Point", "coordinates": [ 3.5180857, 43.283055399999988 ] } },
{ "type": "Feature", "properties": { "NAME": "Beauté \/ Cosmétique \/ Bien-être", "Category": "FRENCH", "Address": "NATUREA BEAUTE,Vendin le Vieil,France", "INDUSTRY": "NATUREA BEAUTE", "CUST_ACCT": "N\/A", "PHONE_DIR": "33321374903", "ZIP_CODE": "N\/A", "CITY": "N\/A", "E_MAIL": "natureabeaute@aim.com", "MEASURE": -999999 }, "geometry": { "type": "Point", "coordinates": [ 2.8665347, 50.4742149 ] } },
{ "type": "Feature", "properties": { "NAME": "Concept store \/ Cadeaux \/ Lifestyle", "Category": "INTERNATIONAL", "Address": "Casual Mood,Braine-l'Alleud,Belgique", "INDUSTRY": "Casual Mood", "CUST_ACCT": "N\/A", "PHONE_DIR": "32471791396", "ZIP_CODE": "N\/A", "CITY": "N\/A", "E_MAIL": "mathildebaudart@hotmail.com", "MEASURE": -999999 }, "geometry": { "type": "Point", "coordinates": [ 4.3744283, 50.6853074 ] } },
{ "type": "Feature", "properties": { "NAME": "Concept store \/ Cadeaux \/ Lifestyle", "Category": "FRENCH", "Address": "Le Coin des Coquettes,Hebuterne,France", "INDUSTRY": "Le Coin des Coquettes", "CUST_ACCT": "N\/A", "PHONE_DIR": "33763012572", "ZIP_CODE": "N\/A", "CITY": "N\/A", "E_MAIL": "cuvillier.melissa@orange.fr", "MEASURE": -999999 }, "geometry": { "type": "Point", "coordinates": [ 2.6361223, 50.1258096 ] } },
{ "type": "Feature", "properties": { "NAME": "Concept store \/ Cadeaux \/ Lifestyle", "Category": "FRENCH", "Address": "VIC ET MEL,Lambersart,France", "INDUSTRY": "VIC ET MEL", "CUST_ACCT": "N\/A", "PHONE_DIR": "33618381666", "ZIP_CODE": "N\/A", "CITY": "N\/A", "E_MAIL": "soapeo@gmail.com", "MEASURE": -999999 }, "geometry": { "type": "Point", "coordinates": [ 3.0157642, 50.65249 ] } },
{ "type": "Feature", "properties": { "NAME": "Beauté \/ Cosmétique \/ Bien-être", "Category": "FRENCH", "Address": "KalyBeauty Bio,L’Aigle,France", "INDUSTRY": "KalyBeauty Bio", "CUST_ACCT": "N\/A", "PHONE_DIR": "33631578554", "ZIP_CODE": "N\/A", "CITY": "N\/A", "E_MAIL": "kalybeautybio@gmail.com", "MEASURE": -999999 }, "geometry": { "type": "Point", "coordinates": [ 0.6254992, 48.7635988 ] } },
{ "type": "Feature", "properties": { "NAME": "Concept store \/ Cadeaux \/ Lifestyle", "Category": "FRENCH", "Address": "L'Eternelle Douceur,Secondigny,France", "INDUSTRY": "L'Eternelle Douceur", "CUST_ACCT": "N\/A", "PHONE_DIR": "33549639530", "ZIP_CODE": "N\/A", "CITY": "N\/A", "E_MAIL": "leternelledouceur@gmail.com", "MEASURE": -999999 }, "geometry": { "type": "Point", "coordinates": [ -0.4187874, 46.6095422 ] } },
{ "type": "Feature", "properties": { "NAME": "Concept store \/ Cadeaux \/ Lifestyle", "Category": "FRENCH", "Address": "AU SOLEIL D ASSIA,Payns,France", "INDUSTRY": "AU SOLEIL D ASSIA", "CUST_ACCT": "N\/A", "PHONE_DIR": "33665074481", "ZIP_CODE": "N\/A", "CITY": "N\/A", "E_MAIL": "ausoleildassiasoleil1018@gmail.com", "MEASURE": -999999 }, "geometry": { "type": "Point", "coordinates": [ 3.976519, 48.383144 ] } },
{ "type": "Feature", "properties": { "NAME": "Beauté \/ Cosmétique \/ Bien-être", "Category": "FRENCH", "Address": "o'bien etre de mams,Bruay-la-Buissière,France", "INDUSTRY": "o'bien etre de mams", "CUST_ACCT": "N\/A", "PHONE_DIR": "33766372640", "ZIP_CODE": "N\/A", "CITY": "N\/A", "E_MAIL": "obienetredemams@gmail.com", "MEASURE": -999999 }, "geometry": { "type": "Point", "coordinates": [ 2.6814399, 50.5136651 ] } },
{ "type": "Feature", "properties": { "NAME": "Concept store \/ Cadeaux \/ Lifestyle", "Category": "INTERNATIONAL", "Address": "Menta Comestica,Algeciras,Espagne", "INDUSTRY": "Menta Comestica", "CUST_ACCT": "N\/A", "PHONE_DIR": "34687173586", "ZIP_CODE": "N\/A", "CITY": "N\/A", "E_MAIL": "susanaescobar80@hotmail.com", "MEASURE": -999999 }, "geometry": { "type": "Point", "coordinates": [ -5.4513868, 36.1434206 ] } },
{ "type": "Feature", "properties": { "NAME": "Beauté \/ Cosmétique \/ Bien-être", "Category": "FRENCH", "Address": "Bien-être au nature'L,Nancy,France", "INDUSTRY": "Bien-être au nature'L", "CUST_ACCT": "N\/A", "PHONE_DIR": "33615669928", "ZIP_CODE": "N\/A", "CITY": "N\/A", "E_MAIL": "bienetreaunaturel@hotmail.com", "MEASURE": -999999 }, "geometry": { "type": "Point", "coordinates": [ 6.1635619, 48.7016305 ] } },
{ "type": "Feature", "properties": { "NAME": "Concept store \/ Cadeaux \/ Lifestyle", "Category": "INTERNATIONAL", "Address": "Web Extreme Ltd.,Plovdiv,Bulgarie", "INDUSTRY": "Web Extreme Ltd.", "CUST_ACCT": "N\/A", "PHONE_DIR": "3,59899E+11", "ZIP_CODE": "N\/A", "CITY": "N\/A", "E_MAIL": "vasil.atanasov@live.com", "MEASURE": -999999 }, "geometry": { "type": "Point", "coordinates": [ 24.7562311, 42.141571 ] } },
{ "type": "Feature", "properties": { "NAME": "Beauté \/ Cosmétique \/ Bien-être", "Category": "FRENCH", "Address": "Rev&Zen,Saint Georges d'Orques,France", "INDUSTRY": "Rev&Zen", "CUST_ACCT": "N\/A", "PHONE_DIR": "33609474537", "ZIP_CODE": "N\/A", "CITY": "N\/A", "E_MAIL": "revzen34690@yahoo.com", "MEASURE": -999999 }, "geometry": { "type": "Point", "coordinates": [ 3.7953766, 43.5593982 ] } },
{ "type": "Feature", "properties": { "NAME": "Bio \/ Vrac \/ Épicerie", "Category": "FRENCH", "Address": "38760 Varces-Allieres-et-Risset, France", "INDUSTRY": "TREBIO.FR", "CUST_ACCT": "N\/A", "PHONE_DIR": "33642979928", "ZIP_CODE": "N\/A", "CITY": "N\/A", "E_MAIL": "geraldinepuy.85@gmail.com", "MEASURE": -999999 }, "geometry": { "type": "Point", "coordinates": [ 5.6826762, 45.0905796 ] } },
{ "type": "Feature", "properties": { "NAME": "Bio \/ Vrac \/ Épicerie", "Category": "FRENCH", "Address": "KAENBIO,Agon Coutainville,France", "INDUSTRY": "KAENBIO", "CUST_ACCT": "N\/A", "PHONE_DIR": "33670956454", "ZIP_CODE": "N\/A", "CITY": "N\/A", "E_MAIL": "kaenbio50@gmail.com", "MEASURE": -999999 }, "geometry": { "type": "Point", "coordinates": [ -1.5984215, 49.0479667 ] } },
{ "type": "Feature", "properties": { "NAME": "Beauté \/ Cosmétique \/ Bien-être", "Category": "FRENCH", "Address": "Zen et sens,Saint Aubin de Baubigné,France", "INDUSTRY": "Zen et sens", "CUST_ACCT": "N\/A", "PHONE_DIR": "33615711228", "ZIP_CODE": "N\/A", "CITY": "N\/A", "E_MAIL": "boussironcyrielle@gmail.com", "MEASURE": -999999 }, "geometry": { "type": "Point", "coordinates": [ -0.6922267, 46.939815499999987 ] } },
{ "type": "Feature", "properties": { "NAME": "Beauté \/ Cosmétique \/ Bien-être", "Category": "INTERNATIONAL", "Address": "NYLS SPRL \/ Les Savons de Lyna,Bruxelles,Belgique", "INDUSTRY": "NYLS SPRL \/ Les Savons de Lyna", "CUST_ACCT": "N\/A", "PHONE_DIR": "32475692132", "ZIP_CODE": "N\/A", "CITY": "N\/A", "E_MAIL": "info@lessavonsdelyna.com", "MEASURE": -999999 }, "geometry": { "type": "Point", "coordinates": [ 4.3506475, 50.8390746 ] } },
{ "type": "Feature", "properties": { "NAME": "Bio \/ Vrac \/ Épicerie", "Category": "FRENCH", "Address": "85210 Saint-Aubin-la-Plaine, France", "INDUSTRY": "Marine Bioty", "CUST_ACCT": "N\/A", "PHONE_DIR": "33760745875", "ZIP_CODE": "N\/A", "CITY": "N\/A", "E_MAIL": "vinz85450@gmail.com", "MEASURE": -999999 }, "geometry": { "type": "Point", "coordinates": [ -1.058759, 46.506669 ] } },
{ "type": "Feature", "properties": { "NAME": "Concept store \/ Cadeaux \/ Lifestyle", "Category": "FRENCH", "Address": "plant'essences,Caudry,France", "INDUSTRY": "plant'essences", "CUST_ACCT": "N\/A", "PHONE_DIR": "33667354055", "ZIP_CODE": "N\/A", "CITY": "N\/A", "E_MAIL": "magalie.carlier.mc@gmail.com", "MEASURE": -999999 }, "geometry": { "type": "Point", "coordinates": [ 3.4072221, 50.121432 ] } },
{ "type": "Feature", "properties": { "NAME": "Beauté \/ Cosmétique \/ Bien-être", "Category": "FRENCH", "Address": "hygiene discount caissargues,Caissargues,France", "INDUSTRY": "hygiene discount caissargues", "CUST_ACCT": "N\/A", "PHONE_DIR": "33766215022", "ZIP_CODE": "N\/A", "CITY": "N\/A", "E_MAIL": "dantes-cove@hotmail.fr", "MEASURE": -999999 }, "geometry": { "type": "Point", "coordinates": [ 5.4270169, 45.5624398 ] } },
{ "type": "Feature", "properties": { "NAME": "Concept store \/ Cadeaux \/ Lifestyle", "Category": "FRENCH", "Address": "3 Impasse des Coucielles, 95200 Sarcelles, France", "INDUSTRY": "Les Douceurs d'Anita", "CUST_ACCT": "N\/A", "PHONE_DIR": "33659194733", "ZIP_CODE": "N\/A", "CITY": "N\/A", "E_MAIL": "contact@lesdouceursdanita.fr", "MEASURE": -999999 }, "geometry": { "type": "Point", "coordinates": [ 2.3813082, 49.003742 ] } },
{ "type": "Feature", "properties": { "NAME": "Bio \/ Vrac \/ Épicerie", "Category": "FRENCH", "Address": "L'épicerie de Lili,Égletons,France", "INDUSTRY": "L'épicerie de Lili", "CUST_ACCT": "N\/A", "PHONE_DIR": "33687690268", "ZIP_CODE": "N\/A", "CITY": "N\/A", "E_MAIL": "lepiceriedelili@gmail.com", "MEASURE": -999999 }, "geometry": { "type": "Point", "coordinates": [ 2.0474285, 45.4060524 ] } },
{ "type": "Feature", "properties": { "NAME": "Concept store \/ Cadeaux \/ Lifestyle", "Category": "FRENCH", "Address": "83170 Rougiers, France", "INDUSTRY": "UDARI AGNES", "CUST_ACCT": "N\/A", "PHONE_DIR": "33662695525", "ZIP_CODE": "N\/A", "CITY": "N\/A", "E_MAIL": "udari.agnes@gmail.com", "MEASURE": -999999 }, "geometry": { "type": "Point", "coordinates": [ 5.851715, 43.392755 ] } },
{ "type": "Feature", "properties": { "NAME": "Beauté \/ Cosmétique \/ Bien-être", "Category": "FRENCH", "Address": "Palais des arômes,Dreuil-lès-Amiens,France", "INDUSTRY": "Palais des arômes", "CUST_ACCT": "N\/A", "PHONE_DIR": "33603405891", "ZIP_CODE": "N\/A", "CITY": "N\/A", "E_MAIL": "palaisdesaromes@outlook.com", "MEASURE": -999999 }, "geometry": { "type": "Point", "coordinates": [ 2.2365612, 49.9135638 ] } },
{ "type": "Feature", "properties": { "NAME": "Bio \/ Vrac \/ Épicerie", "Category": "FRENCH", "Address": "Le Panier de Vérane,Saint-Ouen-sur-Seine,France", "INDUSTRY": "Le Panier de Vérane", "CUST_ACCT": "N\/A", "PHONE_DIR": "33612948806", "ZIP_CODE": "N\/A", "CITY": "N\/A", "E_MAIL": "vero@lepanierdeverane.fr", "MEASURE": -999999 }, "geometry": { "type": "Point", "coordinates": [ 2.3322316, 48.9058682 ] } },
{ "type": "Feature", "properties": { "NAME": "Concept store \/ Cadeaux \/ Lifestyle", "Category": "FRENCH", "Address": "MammNatur',Tiercé,France", "INDUSTRY": "MammNatur'", "CUST_ACCT": "N\/A", "PHONE_DIR": "33669051188", "ZIP_CODE": "N\/A", "CITY": "N\/A", "E_MAIL": "contact@mammnatur.fr", "MEASURE": -999999 }, "geometry": { "type": "Point", "coordinates": [ -0.4680278, 47.6160825 ] } },
{ "type": "Feature", "properties": { "NAME": "Concept store \/ Cadeaux \/ Lifestyle", "Category": "FRENCH", "Address": "MAROXA,Salindres,France", "INDUSTRY": "MAROXA", "CUST_ACCT": "N\/A", "PHONE_DIR": "3,36589E+12", "ZIP_CODE": "N\/A", "CITY": "N\/A", "E_MAIL": "mr.universproduct@gmail.com", "MEASURE": -999999 }, "geometry": { "type": "Point", "coordinates": [ 4.15075, 44.1729785 ] } },
{ "type": "Feature", "properties": { "NAME": "Concept store \/ Cadeaux \/ Lifestyle", "Category": "FRENCH", "Address": "Mes Jolies Coquetteries,Les Abrets en Dauphiné,France", "INDUSTRY": "Mes Jolies Coquetteries", "CUST_ACCT": "N\/A", "PHONE_DIR": "33761543106", "ZIP_CODE": "N\/A", "CITY": "N\/A", "E_MAIL": "mesjoliescoquetteries@yahoo.com", "MEASURE": -999999 }, "geometry": { "type": "Point", "coordinates": [ 5.5859497, 45.5339594 ] } },
{ "type": "Feature", "properties": { "NAME": "Concept store \/ Cadeaux \/ Lifestyle", "Category": "INTERNATIONAL", "Address": "Jonny Dieb aka Emporium Dieb,Santarem,Portugal", "INDUSTRY": "Jonny Dieb aka Emporium Dieb", "CUST_ACCT": "N\/A", "PHONE_DIR": "3,51968E+11", "ZIP_CODE": "N\/A", "CITY": "N\/A", "E_MAIL": "jonnykat@gmail.com", "MEASURE": -999999 }, "geometry": { "type": "Point", "coordinates": [ -8.6952949, 39.2508273 ] } },
{ "type": "Feature", "properties": { "NAME": "Concept store \/ Cadeaux \/ Lifestyle", "Category": "FRENCH", "Address": "Un moment d harmonie,Saint Hilaire de Court,France", "INDUSTRY": "Un moment d harmonie", "CUST_ACCT": "N\/A", "PHONE_DIR": "33620567152", "ZIP_CODE": "N\/A", "CITY": "N\/A", "E_MAIL": "harmonie.gobin@orange.fr", "MEASURE": -999999 }, "geometry": { "type": "Point", "coordinates": [ 2.0245417, 47.2050836 ] } },
{ "type": "Feature", "properties": { "NAME": "Beauté \/ Cosmétique \/ Bien-être", "Category": "FRENCH", "Address": "les senteurs de lara,Antibes,France", "INDUSTRY": "les senteurs de lara", "CUST_ACCT": "N\/A", "PHONE_DIR": "33661117221", "ZIP_CODE": "N\/A", "CITY": "N\/A", "E_MAIL": "lessenteursdelara@gmail.com", "MEASURE": -999999 }, "geometry": { "type": "Point", "coordinates": [ 7.1040036, 43.687706 ] } },
{ "type": "Feature", "properties": { "NAME": "Concept store \/ Cadeaux \/ Lifestyle", "Category": "INTERNATIONAL", "Address": "Slow Now,Liège,Belgique", "INDUSTRY": "Slow Now", "CUST_ACCT": "N\/A", "PHONE_DIR": "3243444412", "ZIP_CODE": "N\/A", "CITY": "N\/A", "E_MAIL": "info@slownow.be", "MEASURE": -999999 }, "geometry": { "type": "Point", "coordinates": [ 5.5820054, 50.6269848 ] } },
{ "type": "Feature", "properties": { "NAME": "Concept store \/ Cadeaux \/ Lifestyle", "Category": "FRENCH", "Address": "The Girly Shop,37000 Tours France", "INDUSTRY": "The Girly Shop", "CUST_ACCT": "N\/A", "PHONE_DIR": "33605357065", "ZIP_CODE": "N\/A", "CITY": "N\/A", "E_MAIL": "thegirlyshop37@gmail.com", "MEASURE": -999999 }, "geometry": { "type": "Point", "coordinates": [ 0.6819277, 47.3938881 ] } },
{ "type": "Feature", "properties": { "NAME": "Concept store \/ Cadeaux \/ Lifestyle", "Category": "INTERNATIONAL", "Address": "verda,Málaga,Espagne", "INDUSTRY": "verda", "CUST_ACCT": "N\/A", "PHONE_DIR": "34603013311", "ZIP_CODE": "N\/A", "CITY": "N\/A", "E_MAIL": "joris@verda.es", "MEASURE": -999999 }, "geometry": { "type": "Point", "coordinates": [ -4.6221205, 36.5384531 ] } },
{ "type": "Feature", "properties": { "NAME": "Concept store \/ Cadeaux \/ Lifestyle", "Category": "FRENCH", "Address": "Nat'Harmonie,Requista,France", "INDUSTRY": "Nat'Harmonie", "CUST_ACCT": "N\/A", "PHONE_DIR": "33698407235", "ZIP_CODE": "N\/A", "CITY": "N\/A", "E_MAIL": "nathalielegros@yahoo.fr", "MEASURE": -999999 }, "geometry": { "type": "Point", "coordinates": [ 2.5410616, 44.0310161 ] } },
{ "type": "Feature", "properties": { "NAME": "Beauté \/ Cosmétique \/ Bien-être", "Category": "FRENCH", "Address": "79440 Courlay, France", "INDUSTRY": "Paulacosmetics", "CUST_ACCT": "N\/A", "PHONE_DIR": "33620792632", "ZIP_CODE": "N\/A", "CITY": "N\/A", "E_MAIL": "paulacosmeticspro@gmail.com", "MEASURE": -999999 }, "geometry": { "type": "Point", "coordinates": [ -0.569505, 46.7754607 ] } },
{ "type": "Feature", "properties": { "NAME": "Concept store \/ Cadeaux \/ Lifestyle", "Category": "FRENCH", "Address": "Chez mimi,Mondonville,France", "INDUSTRY": "Chez mimi", "CUST_ACCT": "N\/A", "PHONE_DIR": "33669744741", "ZIP_CODE": "N\/A", "CITY": "N\/A", "E_MAIL": "mylenenadeau@hotmail.fr", "MEASURE": -999999 }, "geometry": { "type": "Point", "coordinates": [ 1.2854088, 43.6710886 ] } },
{ "type": "Feature", "properties": { "NAME": "Concept store \/ Cadeaux \/ Lifestyle", "Category": "INTERNATIONAL", "Address": "Paolina Concept store,Andenne,Belgique", "INDUSTRY": "Paolina Concept store", "CUST_ACCT": "N\/A", "PHONE_DIR": "32497500215", "ZIP_CODE": "N\/A", "CITY": "N\/A", "E_MAIL": "paolinaconceptstore@gmail.com", "MEASURE": -999999 }, "geometry": { "type": "Point", "coordinates": [ 5.0973149, 50.4890183 ] } },
{ "type": "Feature", "properties": { "NAME": "Beauté \/ Cosmétique \/ Bien-être", "Category": "FRENCH", "Address": "95190 Goussainville, France", "INDUSTRY": "La Therapie Box", "CUST_ACCT": "N\/A", "PHONE_DIR": "33601423168", "ZIP_CODE": "N\/A", "CITY": "N\/A", "E_MAIL": "contact@latherapiebox.com", "MEASURE": -999999 }, "geometry": { "type": "Point", "coordinates": [ 2.45132, 49.0529942 ] } },
{ "type": "Feature", "properties": { "NAME": "Concept store \/ Cadeaux \/ Lifestyle", "Category": "FRENCH", "Address": "Pierres De lune,Les Deux Alpes,France", "INDUSTRY": "Pierres De lune", "CUST_ACCT": "N\/A", "PHONE_DIR": "33688606308", "ZIP_CODE": "N\/A", "CITY": "N\/A", "E_MAIL": "silouv@gmail.com", "MEASURE": -999999 }, "geometry": { "type": "Point", "coordinates": [ 6.1152004, 44.989887 ] } },
{ "type": "Feature", "properties": { "NAME": "Concept store \/ Cadeaux \/ Lifestyle", "Category": "FRENCH", "Address": "La Richebourgeoise,Richebourg,France", "INDUSTRY": "La Richebourgeoise", "CUST_ACCT": "N\/A", "PHONE_DIR": "33648344322", "ZIP_CODE": "N\/A", "CITY": "N\/A", "E_MAIL": "larichebourgeoise@gmail.Com", "MEASURE": -999999 }, "geometry": { "type": "Point", "coordinates": [ 2.7394996, 50.577502699999989 ] } },
{ "type": "Feature", "properties": { "NAME": "Concept store \/ Cadeaux \/ Lifestyle", "Category": "FRENCH", "Address": "LA BOUTIQUE D'AMELIE,Montbrison,France", "INDUSTRY": "LA BOUTIQUE D'AMELIE", "CUST_ACCT": "N\/A", "PHONE_DIR": "33672882890", "ZIP_CODE": "N\/A", "CITY": "N\/A", "E_MAIL": "agnes.dumas42@orange.fr", "MEASURE": -999999 }, "geometry": { "type": "Point", "coordinates": [ 4.0667664, 45.6069026 ] } },
{ "type": "Feature", "properties": { "NAME": "Concept store \/ Cadeaux \/ Lifestyle", "Category": "FRENCH", "Address": "Good Eeffee,Mellac,France", "INDUSTRY": "Good Eeffee", "CUST_ACCT": "N\/A", "PHONE_DIR": "33633949423", "ZIP_CODE": "N\/A", "CITY": "N\/A", "E_MAIL": "lesfeesdesplantes29@gmail.com", "MEASURE": -999999 }, "geometry": { "type": "Point", "coordinates": [ -3.5869326, 47.870323199999987 ] } },
{ "type": "Feature", "properties": { "NAME": "Concept store \/ Cadeaux \/ Lifestyle", "Category": "FRENCH", "Address": "Ma Douce Parenthèse,Verneil le Chetif,France", "INDUSTRY": "Ma Douce Parenthèse", "CUST_ACCT": "N\/A", "PHONE_DIR": "33645932841", "ZIP_CODE": "N\/A", "CITY": "N\/A", "E_MAIL": "madouceparenthese@yahoo.fr", "MEASURE": -999999 }, "geometry": { "type": "Point", "coordinates": [ 0.2952139, 47.7322217 ] } },
{ "type": "Feature", "properties": { "NAME": "Concept store \/ Cadeaux \/ Lifestyle", "Category": "FRENCH", "Address": "Doozi,Montigny-en-Gohelle,France", "INDUSTRY": "Doozi", "CUST_ACCT": "N\/A", "PHONE_DIR": "33670019427", "ZIP_CODE": "N\/A", "CITY": "N\/A", "E_MAIL": "car.vermeersch@gmail.com", "MEASURE": -999999 }, "geometry": { "type": "Point", "coordinates": [ 2.8102529, 50.4276145 ] } },
{ "type": "Feature", "properties": { "NAME": "Beauté \/ Cosmétique \/ Bien-être", "Category": "FRENCH", "Address": "Chailloleau Florence Esthetique,Lèves,France", "INDUSTRY": "Chailloleau Florence Esthetique", "CUST_ACCT": "N\/A", "PHONE_DIR": "33670865237", "ZIP_CODE": "N\/A", "CITY": "N\/A", "E_MAIL": "floesthet01@gmail.com", "MEASURE": -999999 }, "geometry": { "type": "Point", "coordinates": [ 1.4682755, 48.4737376 ] } },
{ "type": "Feature", "properties": { "NAME": "Concept store \/ Cadeaux \/ Lifestyle", "Category": "FRENCH", "Address": "37420 Beaumont-en-Veron, France", "INDUSTRY": "LilyCosmeDream's", "CUST_ACCT": "N\/A", "PHONE_DIR": "33640161674", "ZIP_CODE": "N\/A", "CITY": "N\/A", "E_MAIL": "lily.cosmedreams9@gmail.com", "MEASURE": -999999 }, "geometry": { "type": "Point", "coordinates": [ 0.186337, 47.193927 ] } },
{ "type": "Feature", "properties": { "NAME": "Bio \/ Vrac \/ Épicerie", "Category": "FRENCH", "Address": "Bioviela,Foix,France", "INDUSTRY": "Bioviela", "CUST_ACCT": "N\/A", "PHONE_DIR": "33954406725", "ZIP_CODE": "N\/A", "CITY": "N\/A", "E_MAIL": "contact@bioviela.com", "MEASURE": -999999 }, "geometry": { "type": "Point", "coordinates": [ 1.6082104, 42.9655701 ] } },
{ "type": "Feature", "properties": { "NAME": "Concept store \/ Cadeaux \/ Lifestyle", "Category": "FRENCH", "Address": "Madi Boutique,Potigny,France", "INDUSTRY": "Madi Boutique", "CUST_ACCT": "N\/A", "PHONE_DIR": "33660682116", "ZIP_CODE": "N\/A", "CITY": "N\/A", "E_MAIL": "c.guerin1993@gmail.com", "MEASURE": -999999 }, "geometry": { "type": "Point", "coordinates": [ -0.243744, 48.970807 ] } },
{ "type": "Feature", "properties": { "NAME": "Concept store \/ Cadeaux \/ Lifestyle", "Category": "FRENCH", "Address": "POZADO,Oye-et-Pallet,France", "INDUSTRY": "POZADO", "CUST_ACCT": "N\/A", "PHONE_DIR": "33617538220", "ZIP_CODE": "N\/A", "CITY": "N\/A", "E_MAIL": "v.bompar@pozado.com", "MEASURE": -999999 }, "geometry": { "type": "Point", "coordinates": [ 6.331523, 46.854427 ] } },
{ "type": "Feature", "properties": { "NAME": "Concept store \/ Cadeaux \/ Lifestyle", "Category": "INTERNATIONAL", "Address": "edicola del molo,Ameglia La Spezia,Italie", "INDUSTRY": "edicola del molo", "CUST_ACCT": "N\/A", "PHONE_DIR": "3,93408E+11", "ZIP_CODE": "N\/A", "CITY": "N\/A", "E_MAIL": "linfatica2308@libero.it", "MEASURE": -999999 }, "geometry": { "type": "Point", "coordinates": [ 9.989931, 44.0501358 ] } },
{ "type": "Feature", "properties": { "NAME": "Beauté \/ Cosmétique \/ Bien-être", "Category": "FRENCH", "Address": "L'Atelier Bien-être & Beauté,Saint-Gilles,France", "INDUSTRY": "L'Atelier Bien-être & Beauté", "CUST_ACCT": "N\/A", "PHONE_DIR": "33669627078", "ZIP_CODE": "N\/A", "CITY": "N\/A", "E_MAIL": "latelierbienetreetbeaute@gmail.com", "MEASURE": -999999 }, "geometry": { "type": "Point", "coordinates": [ 4.4313908, 43.6753953 ] } },
{ "type": "Feature", "properties": { "NAME": "Concept store \/ Cadeaux \/ Lifestyle", "Category": "FRENCH", "Address": "douceur au naturel,St Hippolyte,France", "INDUSTRY": "douceur au naturel", "CUST_ACCT": "N\/A", "PHONE_DIR": "33615242609", "ZIP_CODE": "N\/A", "CITY": "N\/A", "E_MAIL": "vapozen25190@sfr.fr", "MEASURE": -999999 }, "geometry": { "type": "Point", "coordinates": [ 6.81191, 47.3178504 ] } },